Restaurant ID,Country Code,City,Restaurant Name & Address,Locality,Locality Verbose,Longitude,Latitude,Cuisines
6317637,162,Makati City,"Le Petit Souffle,Third Floor, Century City Mall, Kalayaan Avenue, Poblacion, Makati City","Century City Mall, Poblacion, Makati City","Century City Mall, Poblacion, Makati City, Makati City",121.027535,14.565443,"French, Japanese, Desserts"
6304287,162,Makati City,"Izakaya Kikufuji,Little Tokyo, 2277 Chino Roces Avenue, Legaspi Village, Makati City","Little Tokyo, Legaspi Village, Makati City","Little Tokyo, Legaspi Village, Makati City, Makati City",121.014101,14.553708,Japanese
6300002,162,Mandaluyong City,"Heat - Edsa Shangri-La,Edsa Shangri-La, 1 Garden Way, Ortigas, Mandaluyong City","Edsa Shangri-La, Ortigas, Mandaluyong City","Edsa Shangri-La, Ortigas, Mandaluyong City, Mandaluyong City",121.056831,14.581404,"Seafood, Asian, Filipino, Indian"
6318506,162,Mandaluyong City,"Ooma,Third Floor, Mega Fashion Hall, SM Megamall, Ortigas, Mandaluyong City","SM Megamall, Ortigas, Mandaluyong City","SM Megamall, Ortigas, Mandaluyong City, Mandaluyong City",121.056475,14.585318,"Japanese, Sushi"
6314302,162,Mandaluyong City,"Sambo Kojin,Third Floor, Mega Atrium, SM Megamall, Ortigas, Mandaluyong City","SM Megamall, Ortigas, Mandaluyong City","SM Megamall, Ortigas, Mandaluyong City, Mandaluyong City",121.057508,14.58445,"Japanese, Korean"
18189371,162,Mandaluyong City,"Din Tai Fung,Ground Floor, Mega Fashion Hall, SM Megamall, Ortigas, Mandaluyong City","SM Megamall, Ortigas, Mandaluyong City","SM Megamall, Ortigas, Mandaluyong City, Mandaluyong City",121.056314,14.583764,Chinese
6300781,162,Pasay City,"Buffet 101,Building K, SM By The Bay, Sunset Boulevard, Mall of Asia Complex (MOA), Pasay City","SM by the Bay, Mall of Asia Complex, Pasay City","SM by the Bay, Mall of Asia Complex, Pasay City, Pasay City",120.9796667,14.53133333,"Asian, European"
6301290,162,Pasay City,"Vikings,Building B, By The Bay, Seaside Boulevard, Mall of Asia Complex (MOA), Pasay City","SM by the Bay, Mall of Asia Complex, Pasay City","SM by the Bay, Mall of Asia Complex, Pasay City, Pasay City",120.9793333,14.54,"Seafood, Filipino, Asian, European"
6300010,162,Pasay City,"Spiral - Sofitel Philippine Plaza Manila,Plaza Level, Sofitel Philippine Plaza Manila, CCP Complex, Pasay City","Sofitel Philippine Plaza Manila, Pasay City","Sofitel Philippine Plaza Manila, Pasay City, Pasay City",120.98009,14.55299,"European, Asian, Indian"
6314987,162,Pasig City,"Locavore,Brixton Technology Center, 10 Brixton Street, Kapitolyo, Pasig City",Kapitolyo,"Kapitolyo, Pasig City",121.056532,14.572041,Filipino
6309903,162,Pasig City,"Silantro Fil-Mex,75 East Capitol Drive, Kapitolyo, Pasig City",Kapitolyo,"Kapitolyo, Pasig City",121.057916,14.567689,"Filipino, Mexican"
6309455,162,Pasig City,"Mad Mark's Creamery & Good Eats,23 East Capitol Drive, Kapitolyo, Pasig City",Kapitolyo,"Kapitolyo, Pasig City",121.06082,14.570849,"American, Ice Cream, Desserts"
6318433,162,Quezon City,"Silantro Fil-Mex,Second Floor, UP Town Center, Katipunan Avenue, Diliman, Quezon City","UP Town Center, Diliman, Quezon City","UP Town Center, Diliman, Quezon City, Quezon City",121.075419,14.649503,"Filipino, Mexican"
6310470,162,San Juan City,"Guevarra's,387 P. Guevarra Corner Argonne Street, Addition Hills, San Juan City",Addition Hills,"Addition Hills, San Juan City",121.0335917,14.59345,Filipino
6314605,162,San Juan City,"Sodam Korean Restaurant,17 J. Abad Santos Drive, Little Baguio, San Juan City",Little Baguio,"Little Baguio, San Juan City",121.03811,14.59889,Korean
18185059,162,Santa Rosa,"Cafe Arabelle,Ayala Mall, Solenad, Nuvali, Santa Rosa - Tagaytay Road, Don Jose, Santa Rosa","Nuvali, Don Jose, Santa Rosa","Nuvali, Don Jose, Santa Rosa, Santa Rosa",121.05704,14.237082,"Cafe, American, Italian, Filipino"
18182702,162,Santa Rosa,"Nonna's Pasta & Pizzeria,Ground Floor, Building G, Solenad 3, Nuvali, Don Jose, Santa Rosa","Solenad 3, Don Jose, Santa Rosa","Solenad 3, Don Jose, Santa Rosa, Santa Rosa",121.0565874,14.23767897,"Italian, Pizza"
6318213,162,Tagaytay City,"Balay Dako,Aguinaldo Highway, Tagaytay City",Tagaytay City,"Tagaytay City, Tagaytay City",120.951589,14.101834,Filipino
18255654,162,Taguig City,"Hobing Korean Dessert Cafe,Third Floor, BGC Stopover Pavillion, Rizal Drive Corner 31st Street, Bonifacio Global City, Taguig City","BGC Stopover Pavillion, Bonifacio Global City","BGC Stopover Pavillion, Bonifacio Global City, Taguig City",121.045878,14.55436,"Cafe, Korean, Desserts"
6308205,162,Taguig City,"Wildflour Cafe + Bakery,Ground Floor, Netlima Building, 4th Avenue Corner 26th Street, Bonifacio Global City, Taguig City",Bonifacio Global City,"Bonifacio Global City, Taguig City",121.04622,14.549337,"Cafe, Bakery, American, Italian"
6315438,162,Taguig City,"NIU by Vikings,Sixth Floor, SM Aura Premier, C5 Road Corner 26th Street, Bonifacio Global City, Taguig City","SM Aura Premier, Bonifacio Global City, Taguig City","SM Aura Premier, Bonifacio Global City, Taguig City, Taguig City",121.053725,14.545858,"Seafood, American, Mediterranean, Japanese"
6310406,162,Taguig City,"The Food Hall by Todd English,Fifth Floor, SM Aura Premier, C5 Corner 26th Street, Bonifacio Global City, Taguig City","SM Aura Premier, Bonifacio Global City, Taguig City","SM Aura Premier, Bonifacio Global City, Taguig City, Taguig City",121.0534998,14.54565535,"American, Asian, Italian, Seafood"
18483372,184,Singapore,"Sky On 57,10 Bayfront Avenue, 57 Marina Bay Sands 018956","Bayfront Avenue, Downtown Core","Bayfront Avenue, Downtown Core, Singapore",103.8600048,1.2826608,"Chinese, Continental, Singaporean"
18484349,184,Singapore,"Cut By Wolfgang Puck,2 Bayfront Avenue, B1-71 Marina Bay Sands 018972","Bayfront Subzone, Downtown Core","Bayfront Subzone, Downtown Core, Singapore",103.8594222,1.285476931,"American, Steak"
18496057,184,Singapore,"Restaurant Andre,41 Bukit Pasoh Road 089855","Cantonment Road, Outram","Cantonment Road, Outram, Singapore",103.8403602,1.279419756,"French, Mediterranean, European"
18483389,184,Singapore,"Potato Head Folk,36 Keong Saik Road 089143","Chinatown, Outram","Chinatown, Outram, Singapore",103.8416688,1.280502991,American
18483222,184,Singapore,"Jaan,2 Stamford Road, Level 70 Equinox Complex 178882","City Hall, Downtown Core","City Hall, Downtown Core, Singapore",103.8536048,1.293220698,French
18483085,184,Singapore,"Rhubarb Le Restaurant,3 Duxton Hill, Duxton 089589","Duxton Hill, Outram","Duxton Hill, Outram, Singapore",103.8430222,1.27944363,French
18484423,184,Singapore,"Al'frank Cookies,12 Haji Lane 189205","Haji Lane, Rochor","Haji Lane, Rochor, Singapore",103.859422,1.300404333,Bakery
18483714,184,Singapore,"Fratini La Trattoria,10 Greenwood Avenue, Hillcrest Park 289201","Hillcrest, Bukit Timah","Hillcrest, Bukit Timah, Singapore",103.8070809,1.331128397,Italian
18485469,184,Singapore,"Boufe Boutique Cafe,308 Tanglin Road,Phoenix Park #01-01  247974","Kay Siang Road, Tanglin","Kay Siang Road, Tanglin, Singapore",103.8146178,1.29782554,"Italian, French, Bakery, Cafe"
18479690,184,Singapore,"The Refinery Singapore,115 King George Avenue, #01-02 Ann Chuan Industrial Building 208561","Lavender, Kallang","Lavender, Kallang, Singapore",103.8621195,1.310668316,"American, Japanese, Singaporean"
18483224,184,Singapore,"Chye Seng Huat Hardware,150 Tyrwhitt Road 207563","Lavender, Kallang","Lavender, Kallang, Singapore",103.8604162,1.311550709,Cafe
18493989,184,Singapore,"Makansutra Gluttons Bay,803 Raffles Avenue, #01-15 Esplanade Mall 039802","Marina Centre, Downtown Core","Marina Centre, Downtown Core, Singapore",103.8558665,1.289761964,"Singaporean, Chinese, Seafood, Malay, Indian"
18484464,184,Singapore,"Colony,7 Raffles Avenue, Ritz-carlton Millenia Singapore 039799","Marina Centre, Downtown Core","Marina Centre, Downtown Core, Singapore",103.859955,1.2905805,"Asian, Continental, Seafood"
18483051,184,Singapore,"Summer Pavilion,The Ritz-Carlton, 7 Raffles Avenue,  Millenia Singapore,  039799","Marina Centre, Downtown Core","Marina Centre, Downtown Core, Singapore",103.8601766,1.290800881,"Chinese, Seafood, Cantonese, Dim Sum"
18482983,184,Singapore,"The Lokal,136 Neil Road 088865","Neil Road, Outram","Neil Road, Outram, Singapore",103.840921,1.278373182,"Singaporean, Australian, German"
18479742,184,Singapore,"I Am,674 North Bridge Road, #01-01 Haji Lane 188804","North Bridge Road, Rochor","North Bridge Road, Rochor, Singapore",103.8584296,1.301707168,"Western, Fusion, Fast Food"
18482938,184,Singapore,"Super Loco,The Quayside 60 Roberston Quay #01-13 238252","Robertson Quay, Singapore River","Robertson Quay, Singapore River, Singapore",103.839165,1.290083898,"American, Mexican"
18483082,184,Singapore,"Artistry,17 Jalan Pinang 199149","Sungai Pinang, Rochor","Sungai Pinang, Rochor, Singapore",103.8581813,1.303034648,"American, Bakery, European, Burger, Fusion"
18483446,184,Singapore,"Bitters & Love,118 Telok Ayer Street 068587","Telok Ayer Street, Outram","Telok Ayer Street, Outram, Singapore",103.8482541,1.28197,Finger Food
18483252,184,Singapore,"Artichoke Cafe,161 Middle Road, Sculpture Square 188978","Victoria, Rochor","Victoria, Rochor, Singapore",103.8519943,1.299707726,"Cafe, Spanish, Turkish, Greek"
18212135,214,Abu Dhabi,"Denny's,Abu Dhabi Mall, Tourist Club Area (Al Zahiyah), Abu Dhabi","Abu Dhabi Mall, Tourist Club Area  (Al Zahiyah)","Abu Dhabi Mall, Tourist Club Area  (Al Zahiyah), Abu Dhabi",54.38279729,24.49550307,American
5704255,214,Abu Dhabi,"Famous Dave's Barbecue,Near The One, Level 3, Abu Dhabi Mall, Tourist Club Area (Al Zahiyah), Abu Dhabi","Abu Dhabi Mall, Tourist Club Area  (Al Zahiyah)","Abu Dhabi Mall, Tourist Club Area  (Al Zahiyah), Abu Dhabi",54.38294616,24.49569253,American
5701978,214,Abu Dhabi,"Pizza Di Rocco,Near Corner of Salam and Al Falah Street (9th Street), Salam Street, Al Dhafrah, Abu Dhabi",Al Dhafrah,"Al Dhafrah, Abu Dhabi",54.38193094,24.48557932,"Italian, Pizza"
5701729,214,Abu Dhabi,"Sofra Istanbul,Next to ADNOC Petrol Station, Muroor Road, Al Dhafrah, Abu Dhabi",Al Dhafrah,"Al Dhafrah, Abu Dhabi",54.37127855,24.47756501,"Turkish, Arabian, Middle Eastern"
5704168,214,Abu Dhabi,"Salt,Inside Mushrif Park, Al Mushrif, Abu Dhabi",Al Mushrif,"Al Mushrif, Abu Dhabi",54.38080709,24.4543119,"Fast Food, Burger"
18277098,214,Abu Dhabi,"Genghis Grill,Level 2, Al Wahda Mall New Extension, Al Wahda, Abu Dhabi","Al Wahda Mall, Al Wahda","Al Wahda Mall, Al Wahda, Abu Dhabi",54.37500816,24.47083582,Asian
5701446,214,Abu Dhabi,"Olive Garden,Level 3, Al Wahda Mall Extension, Al Wahda, Abu Dhabi","Al Wahda Mall, Al Wahda","Al Wahda Mall, Al Wahda, Abu Dhabi",54.37332205,24.46936983,"Italian, Pizza"
5700052,214,Abu Dhabi,"Cho Gao - Crowne Plaza Abu Dhabi,Crowne Plaza Abu Dhabi, Sheikh Hamdan Bin Mohammed Street, Al Markaziya, Abu Dhabi","Crowne Plaza Abu Dhabi, Al Markaziya","Crowne Plaza Abu Dhabi, Al Markaziya, Abu Dhabi",54.365694,24.491235,"Thai, Japanese, Chinese, Indonesian, Vietnamese"
5702418,214,Abu Dhabi,"Gazebo,Ground Level, Next to E-Max, Dalma Mall, Mussafah Sanaiya, Abu Dhabi","Dalma Mall, Mussafah Sanaiya","Dalma Mall, Mussafah Sanaiya, Abu Dhabi",54.52412188,24.33421694,"Indian, North Indian, Mughlai, Biryani"
5700386,214,Abu Dhabi,"Sangeetha Vegetarian Restaurant,Opposite Cristal Hotel, Behind KM Trading, Electra Street, Madinat Zayed, Abu Dhabi",Madinat Zayed,"Madinat Zayed, Abu Dhabi",54.36377607,24.48525254,"Indian, South Indian"
5704202,214,Abu Dhabi,"Hot Palayok,Food Court, Level 2, Madinat Zayed Shopping Centre, Madinat Zayed, Abu Dhabi","Madinat Zayed Shopping Centre, Madinat Zayed ","Madinat Zayed Shopping Centre, Madinat Zayed , Abu Dhabi",54.36615754,24.48277094,"Filipino, Japanese, Asian"
5701052,214,Abu Dhabi,"Applebee's,Level 3, Mushrif Mall, Al Mushrif, Abu Dhabi","Mushrif Mall, Al Mushrif","Mushrif Mall, Al Mushrif, Abu Dhabi",54.41314146,24.43409939,"American, Mexican, Seafood"
5704118,214,Abu Dhabi,"Tikka Tonight,Behind RAK Bank, Sanaiya ME11, Mussafah Sanaiya, Abu Dhabi",Mussafah Sanaiya,"Mussafah Sanaiya, Abu Dhabi",54.51003961,24.36312973,"Pakistani, Afghani, Indian, Hyderabadi"
5701548,214,Abu Dhabi,"Bait El Khetyar,Al Najda Street, Najda, Abu Dhabi",Najda,"Najda, Abu Dhabi",54.37143378,24.48841145,"Lebanese, Arabian, Middle Eastern"
18235425,214,Abu Dhabi,"Indian By Nature,Shop 2-3, Tolico Building, Behind Lebanese Roastery, Near National Hospital, Najda, Abu Dhabi",Najda,"Najda, Abu Dhabi",54.37324997,24.48959102,Indian
5702615,214,Abu Dhabi,"Via Delhi,Near First Flight Couriers, Behind ADNOC Head Office, Salam Street, Najda Area, Najda, Abu Dhabi",Najda,"Najda, Abu Dhabi",54.37422059,24.49089202,"Indian, North Indian, Chinese"
5703500,214,Abu Dhabi,"Punjab Grill,Venetian Village, Ritz Carlton Abu Dhabi, Grand Canal, Al Maqtaa, Abu Dhabi","Venetian Village, Al Maqtaa","Venetian Village, Al Maqtaa, Abu Dhabi",54.4872137,24.4106148,"Indian, North Indian"
18253896,214,Abu Dhabi,"Tamba,6th Floor, World Trade Centre Mall, Al Markaziya, Abu Dhabi","World Trade Center Mall, Al Markaziya","World Trade Center Mall, Al Markaziya, Abu Dhabi",54.358147,24.488161,Indian
5701917,214,Abu Dhabi,"P.F. Chang's,Level 1, World Trade Center Mall, Central Market, Al Markaziya, Abu Dhabi","World Trade Center Mall, Al Markaziya","World Trade Center Mall, Al Markaziya, Abu Dhabi",54.35782894,24.48761082,Chinese
5702574,214,Abu Dhabi,"The Cheesecake Factory,Level 1, Yas Mall, Yas Leisure Dr, Yas Island, Abu Dhabi","Yas Mall, Yas Island","Yas Mall, Yas Island, Abu Dhabi",54.60685361,24.49053138,"American, Desserts"
202321,214,Dubai,"The Farm,Al Barari Villas, Opposite Falcon City, Al Barari, Dubai",Al Barari,"Al Barari, Dubai",55.310519,25.095044,"Mediterranean, Italian, Thai, European"
206488,214,Dubai,"Maharaja Bhog,Ground Level, Hamsah Mall, Next to Ansar Gallery, Al Karama, Dubai",Al Karama,"Al Karama, Dubai",55.30919038,25.25124063,"Indian, Rajasthani"
209654,214,Dubai,"Rasoi Ghar,Zainal Mohebi Plaza, Sheikh Khalifa Bin Zayed Road, Opposite Centrepoint, Al Karama, Dubai",Al Karama,"Al Karama, Dubai",55.3019169,25.25007862,Indian
18340881,214,Dubai,"Barbeque Nation,G1, Villa, Near HQ Fitness, Near Lulu Mall, Barsha 2, Dubai",Barsha 2,"Barsha 2, Dubai",55.215341,25.11338,"Indian, North Indian"
18233284,214,Dubai,"Farzi Cafe,CITY WALK, Al Safa & Al Wasl Road Intersection, Al Safa, Dubai","CITY WALK, Al Safa","CITY WALK, Al Safa, Dubai",55.26191946,25.2080323,"International, Indian"
18269368,214,Dubai,"AB's Absolute Barbecues,Mezzanaine Floor, Centurion Star Tower, Deira City Centre Area, Dubai",Deira City Centre Area,"Deira City Centre Area, Dubai",55.32874,25.254105,"Continental, Indian"
18254160,214,Dubai,"Carnival By Tresind,Podium Level, Burj Daman, DIFC, Dubai",DIFC,"DIFC, Dubai",55.281966,25.211183,Indian
208939,214,Dubai,"AB's Absolute Barbecues,Shop G05, Sidra Tower, Near GEMS Wellington School, Exit 36, Sheikh Zayed Road, Dubai Media City, Dubai",Dubai Media City,"Dubai Media City, Dubai",55.17874617,25.10777315,"Indian, Continental"
201531,214,Dubai,"Hard Rock Cafe,Next to Marks & Spencer's, Festival City, Dubai",Festival City,"Festival City, Dubai",55.35147775,25.22399154,"American, Burger"
208965,214,Dubai,"The Coffee Club,Wasl Vita, Opposite Civil Defence Station, Near Emirates NBD, Al Wasl Road, Jumeirah 1, Dubai",Jumeirah 1,"Jumeirah 1, Dubai",55.25639722,25.21110278,Cafe
208778,214,Dubai,"SALT,Kite Beach, Street 2D, Umm Suqeim, Dubai","Kite Beach, Umm Suqeim","Kite Beach, Umm Suqeim, Dubai",55.21152779,25.16812806,"Fast Food, Burger"
209703,214,Dubai,"Din Tai Fung,Level 2 Expansion, Mall of the Emirates, Barsha 1, Dubai","Mall of the Emirates, Barsha 1","Mall of the Emirates, Barsha 1, Dubai",55.19854523,25.11851301,"Asian, Chinese"
18381837,214,Dubai,"SpiceKlub,Opposite Aster Hospital, Near Sharaf DG, Kuwait Street, Mankhool, Dubai",Mankhool,"Mankhool, Dubai",55.288061,25.252054,"Indian, North Indian, Street Food"
208850,214,Dubai,"Tresind - Nassima Royal Hotel,Level 2, Nassima Royal Hotel, Sheikh Zayad Road, Trade Centre Area, Dubai","Nassima Royal Hotel, Trade Centre Area","Nassima Royal Hotel, Trade Centre Area, Dubai",55.28256778,25.22347744,Indian
210134,214,Dubai,"Grand Barbeque Buffet Restaurant,Al Mina Road, Next to Ibis Styles Jumeirah Hotel, Satwa, Dubai",Satwa,"Satwa, Dubai",55.27340334,25.24107351,"Indian, Asian"
201044,214,Dubai,"Red Lobster,Near the Fountain, Lower Ground Level, The Dubai Mall, Downtown Dubai, Dubai","The Dubai Mall,Downtown Dubai","The Dubai Mall,Downtown Dubai, Dubai",55.278525,25.198291,"Seafood, American"
201340,214,Dubai,"The Cheesecake Factory,Ground Level, Near Aquarium, The Dubai Mall, Downtown Dubai, Dubai","The Dubai Mall,Downtown Dubai","The Dubai Mall,Downtown Dubai, Dubai",55.27856994,25.19726756,"American, Desserts"
18289126,214,Dubai,"Parker's,The Dubai Mall, Downtown Dubai, Dubai","The Dubai Mall,Downtown Dubai","The Dubai Mall,Downtown Dubai, Dubai",55.27927805,25.19500831,"Cafe, Burger"
202507,214,Dubai,"Applebee's,Sheikh Issa Tower, Sheikh Zayed Road, Trade Centre Area, Dubai",Trade Centre Area,"Trade Centre Area, Dubai",55.27430557,25.21135663,"American, Mexican, Burger"
210139,214,Dubai,"Grub Shack,Building 41, Next to Dubai Healthcare City Metro Station, Dubai Healthcare City, Umm Hurair, Dubai",Umm Hurair,"Umm Hurair, Dubai",55.32548446,25.22931113,"Goan, Chinese, Indian, North Indian"
5600424,214,Sharjah,"Kamat,Opposite HSBC, Near Emax, King Faisal Street, Abu Shagara, Sharjah",Abu Shagara,"Abu Shagara, Sharjah",55.39273214,25.33315516,"Indian, North Indian, South Indian, Chinese"
5602751,214,Sharjah,"Vadakkan Pepper,Near New City Center Supermarket, Abu Shagara, Sharjah",Abu Shagara,"Abu Shagara, Sharjah",55.396984,25.338089,South Indian
5600457,214,Sharjah,"Gazebo,Opposite Safeer Market, Near E max, King Faisal Street, Abu Shagara, Sharjah",Abu Shagara,"Abu Shagara, Sharjah",55.39269626,25.33320395,"Indian, Mughlai, South Indian, Biryani"
5600642,214,Sharjah,"Katis Restaurant,Opposite Safeer Market, Al Khan Street, Al Khan, Sharjah",Al Khan,"Al Khan, Sharjah",55.37637066,25.32578908,"Indian, North Indian, Chinese"
18268134,214,Sharjah,"Zaroob,Al Buhaira Corniche Street, Al Majaz Water Front, Al Majaz, Sharjah",Al Majaz,"Al Majaz, Sharjah",55.38474888,25.32451353,Lebanese
18376208,214,Sharjah,"Derby,Al Khan Street, Al Majaz 3, Al Majaz, Sharjah",Al Majaz,"Al Majaz, Sharjah",55.37086055,25.33045321,"Fast Food, American"
5600959,214,Sharjah,"Nayaab Haandi,Near Etisalat Business Center, Opposite ADNOC Petrol Station, Al Khan Street, Al Majaz 2, Al Majaz, Sharjah",Al Majaz,"Al Majaz, Sharjah",55.37552107,25.32813499,"Pakistani, Indian"
5600103,214,Sharjah,"Najmat Lahore Restaurant,Near Sharjah Animal Market, Al Mina Road, Al Mareija, Sharjah",Al Mareija,"Al Mareija, Sharjah",55.38215585,25.35508316,"Pakistani, Indian, Mughlai"
5602586,214,Sharjah,"Saffron,Mina Road, Opposite Bird Market, Al Mareija, Sharjah",Al Mareija,"Al Mareija, Sharjah",55.38290787,25.35443539,"Pakistani, Chinese, Indian, Afghani"
5600961,214,Sharjah,"Pizza Hut,Next to Safeer Mall, Al Nahda, Sharjah",Al Nahda,"Al Nahda, Sharjah",55.37454341,25.30564046,"Fast Food, Pizza"
5600960,214,Sharjah,"Al Mukhtar Bakery,Near Safeer Mall, Al Nahda, Sharjah",Al Nahda,"Al Nahda, Sharjah",55.37728127,25.3084117,"Bakery, Arabian, Middle Eastern"
5601340,214,Sharjah,"Aroos Damascus,Opposite Emirates NBD, Near First Gulf Bank, King Abdul Aziz Street, Al Nud, Sharjah",Al Nud,"Al Nud, Sharjah",55.39045796,25.34640794,"Arabian, Middle Eastern"
5600701,214,Sharjah,"Nando's,Ground level, Block D, Qanat Al Qasba, Al Khan, Sharjah","Al Qasba, Al Khan","Al Qasba, Al Khan, Sharjah",55.376027,25.32188994,"African, Portuguese"
5601404,214,Sharjah,"Peking Chinese Restaurant,Opposite Spinneys Roundabout, Estiqlal Square, Halwan Suburb, Sharjah",Halwan Suburb,"Halwan Suburb, Sharjah",55.39922744,25.34839077,"Chinese, Thai"
5600556,214,Sharjah,"TGI Friday's,Majaz Waterfront, Buhairah Corniche, Al Majaz 3, Al Majaz, Sharjah","Majaz Waterfront, Al Majaz 3","Majaz Waterfront, Al Majaz 3, Sharjah",55.38781766,25.32774497,"American, Mexican"
5602055,214,Sharjah,"Rajasthan Al Malaki,Behind DPS Sharjah Primary School, Muwailih Commercial, Sharjah",Muwailih Commercial,"Muwailih Commercial, Sharjah",55.45195531,25.2887722,"Indian, North Indian"
5601521,214,Sharjah,"Applebee's,Opposite Jumbo Electronics, Level 2, Sahara Centre, Al Nahda, Sharjah","Sahara Centre, Al Nahda","Sahara Centre, Al Nahda, Sharjah",55.37353624,25.29782287,"American, Mexican, Burger"
5602377,214,Sharjah,"Paper Fig,Near Dubai Islamic Bank, Muweilah, University City, Sharjah",University City,"University City, Sharjah",55.45834266,25.3084123,"Cafe, Bakery, Desserts"
5602884,214,Sharjah,"Sis Burger,Behind ADNOC Petrol Station, Univercity City Road, University City, Sharjah",University City,"University City, Sharjah",55.45425095,25.31127229,"Fast Food, Burger"
5602942,214,Sharjah,"Crafted Blends,Next To Super Bonanza Hyper Market, Opposite Defence Camp, University City, Sharjah",University City,"University City, Sharjah",55.460279,25.310369,Cafe
3400025,1,Agra,"Jahanpanah,E 23, Shopping Arcade, Sadar Bazaar, Agra Cantt, Agra",Agra Cantt,"Agra Cantt, Agra",78.01154444,27.16166111,"North Indian, Mughlai"
3400341,1,Agra,"Rangrezz Restaurant,E-20, Shopping Arcade, Sadar Bazaar, Agra Cantt, Agra",Agra Cantt,"Agra Cantt, Agra",0,0,"North Indian, Mughlai"
3400005,1,Agra,"Time2Eat - Mama Chicken,Main Market, Sadar Bazaar, Agra Cantt, Agra",Agra Cantt,"Agra Cantt, Agra",78.01160797,27.16083249,North Indian
3400021,1,Agra,"Chokho Jeeman Marwari Jain Bhojanalya,1/48, Delhi Gate, Station Road, Raja Mandi, Civil Lines, Agra",Civil Lines,"Civil Lines, Agra",77.99809167,27.19592778,Rajasthani
3400017,1,Agra,"Pinch Of Spice,23/453, Opposite Sanjay Cinema, Wazipura Road, Sanjay Place, Civil Lines, Agra",Civil Lines,"Civil Lines, Agra",78.00755278,27.201725,"North Indian, Chinese, Mughlai"
3400325,1,Agra,"MoMo Cafe,Courtyard by Marriott Agra, Phase 2, Fatehabad Road, Tajganj, Agra","Courtyard by Marriott Agra, Tajganj","Courtyard by Marriott Agra, Tajganj, Agra",0,0,"North Indian, European"
3400059,1,Agra,"Peshawri - ITC Mughal,ITC Mughal, Fatehabad Road, Tajganj, Agra","ITC Mughal, Tajganj","ITC Mughal, Tajganj, Agra",78.044095,27.160934,"North Indian, Mughlai"
3400060,1,Agra,"Taj Bano - ITC Mughal,ITC Mughal, Fatehabad Road, Tajganj, Agra","ITC Mughal, Tajganj","ITC Mughal, Tajganj, Agra",78.044095,27.160934,Mughlai
3400348,1,Agra,"G Thal,3/20, KPS Tower, Near Tulsi Talkies, Bypass Road, Khandari, Agra",Khandari,"Khandari, Agra",0,0,"Rajasthani, Gujarati, Mughlai"
3400072,1,Agra,"Dawat-e-Nawab - Radisson Blu,Radisson Blu, Taj East Gate Road, Tajganj, Agra","Radisson Blu, Tajganj","Radisson Blu, Tajganj, Agra",78.057044,27.163303,"North Indian, Mughlai"
3400073,1,Agra,"The Latitude - Radisson Blu,Radisson Blu, Taj East Gate Road, Tajganj, Agra","Radisson Blu, Tajganj","Radisson Blu, Tajganj, Agra",78.057044,27.163303,"North Indian, Chinese, Continental"
3400019,1,Agra,"Dasaprakash Restaurant,Meher Cinema Complex, Gwalior Road, Rakabganj, Agra",Rakabganj,"Rakabganj, Agra",78.01505278,27.16510833,"South Indian, Desserts"
3400033,1,Agra,"The Charcoal Chimney,Hotel Samovar, Fatehabad Road, Tajganj, Agra",Tajganj,"Tajganj, Agra",78.04299,27.159795,"North Indian, Chinese, Continental, Mughlai"
3400346,1,Agra,"Sheroes Hangout,Opposite The Gateway Hotel, Fatehabad Road, Tajganj, Agra",Tajganj,"Tajganj, Agra",78.040165,27.16185,"Cafe, North Indian, Chinese"
3400350,1,Agra,"Bon Barbecue,Parador Hotel, 3A-3B, Phase 1, Fatehabad Road, Taj Nagri, Tajganj, Agra",Tajganj,"Tajganj, Agra",0,0,"North Indian, Chinese, Continental"
3400391,1,Agra,"Chapter 1 Cafe,1374 K/1375 K, 2nd floor, Dinesh Nagar, Fatehbad Road, Tajganj, Agra",Tajganj,"Tajganj, Agra",0,0,"Cafe, Italian, Mexican, North Indian, Continental"
3400016,1,Agra,"Pind Balluchi,Opposite Saga Emporium, Fatehabad Road, Tajganj, Agra",Tajganj,"Tajganj, Agra",78.04725,27.15777222,"North Indian, Mughlai"
3400105,1,Agra,"Pizza Hut,8, Handicraft Nagar, Fatehabad Road, Tajganj, Agra",Tajganj,"Tajganj, Agra",78.03471389,27.16169444,"Italian, Pizza"
3400326,1,Agra,"Tea'se Me - Rooftop Tea Boutique,Near Purani Mandi Crossing,Fatehabad Road, Tajganj, Agra",Tajganj,"Tajganj, Agra",0,0,"Chinese, Italian, Continental, North Indian"
3400392,1,Agra,"Thaaliwala,Next To ITC Mughal Hotel, Fatehabad Road, Tajganj, Agra",Tajganj,"Tajganj, Agra",78.045359,27.158822,"North Indian, Fast Food"
111895,1,Ahmedabad,"650 - The Global Kitchen,Shreekunj Mandapam, Beside Golden Tulip Bunglows & Tulip Citadel, Manekbaug, Ambavadi, Ahmedabad",Ambavadi,"Ambavadi, Ahmedabad",72.5375741,23.01045111,"Chinese, Italian, North Indian, Mexican, Mediterranean, Thai"
110502,1,Ahmedabad,"Patang - The Revolving Restaurant,Chinubhai Tower, Nehru Bridge Corner, Ashram Road, Ahmedabad",Ashram Road,"Ashram Road, Ahmedabad",72.572009,23.0261651,"Continental, Chinese, North Indian"
18396250,1,Ahmedabad,"Huber & Holly,7 B, Circle  B, Opposite Rajpath Club, Sarkhej, Gandhinagar Highway, Bodakdev, Ahmedabad",Bodakdev,"Bodakdev, Ahmedabad",72.5123947,23.0383109,"Ice Cream, Desserts, Continental"
113702,1,Ahmedabad,"@Mango,Opposite Sindhu Bhawan, Bodakdev, Ahmedabad",Bodakdev,"Bodakdev, Ahmedabad",72.5017644,23.0401633,"North Indian, Continental, Mexican, Italian"
113433,1,Ahmedabad,"Fozzie's Pizzaiolo,Ground Floor, Maruti Crystal, Opposite Rajpath Club, Service Road, Bodakdev, Ahmedabad",Bodakdev,"Bodakdev, Ahmedabad",72.5098065,23.0330688,"Pizza, Italian, Beverages, Desserts"
18438909,1,Ahmedabad,"La Pino'z Pizza,Shop 10,  Circle B, Nyay Marg, Bodakdev, Ahmedabad",Bodakdev,"Bodakdev, Ahmedabad",72.5124872,23.0382314,"Pizza, Italian"
18143128,1,Ahmedabad,"Mocha,6-9, Ground Floor, Devashish Business Park, Opposite Krishna Complex, Bodakdev, Ahmedabad",Bodakdev,"Bodakdev, Ahmedabad",72.511307,23.0318508,"Cafe, Continental, Desserts"
18438944,1,Ahmedabad,"Blue -  Rooftop Cafe Restaurant Bistro,10th Floor, Balaji Heights Buliding, Behind Tanishq Showroom, C G Road, Ahmedabad",C G Road,"C G Road, Ahmedabad",72.5570374,23.0290619,"North Indian, Cafe, Italian, Mexican, Continental"
110436,1,Ahmedabad,"MoMo Cafí© - Courtyard By Marriott,Courtyard By Marriott, Ramdevnagar Cross Road, Satellite, Ahmedabad","Courtyard By Marriott, Satellite","Courtyard By Marriott, Satellite, Ahmedabad",72.5115815,23.027929,"North Indian, South Indian, Asian, Continental"
18385201,1,Ahmedabad,"Cryo Lab,Ground Floor, Arjun Avenue, Opposite Samartheshwar Mahadev, Law Garden, Ahmedabad",Ellis Bridge,"Ellis Bridge, Ahmedabad",72.55998429,23.02874796,"Desserts, Ice Cream"
110395,1,Ahmedabad,"Swati Snacks,Near Law Garden, Ellis Bridge, Ahmedabad",Ellis Bridge,"Ellis Bridge, Ahmedabad",72.55903311,23.02443364,"Fast Food, Street Food, South Indian"
18335583,1,Ahmedabad,"Brick Kitchen,At Five Petals Hotel & Banquets, Near Chanakyapuri Bridge, Ghatlodia, Ahmedabad",Ghatlodia,"Ghatlodia, Ahmedabad",72.5316389,23.0643038,"North Indian, Chinese, Continental"
110237,1,Ahmedabad,"Kabir Restaurant,JB Tower, Opposite Doordarshan Kendra, Drive In Road, Gurukul, Ahmedabad",Gurukul,"Gurukul, Ahmedabad",72.5239649,23.04850469,"North Indian, Chinese, Continental, Desserts, Fast Food, Sandwich"
113537,1,Ahmedabad,"Puffizza,103, Kairos, Opposite Mahatma Gandhi Labour Institute, Drive In Road, Gurukul, Ahmedabad",Gurukul,"Gurukul, Ahmedabad",72.53774978,23.04619268,"Italian, Fast Food"
113703,1,Ahmedabad,"Cafe Alfresco,101, Dynamic House, Vijay Cross Road, Above HDFC Bank, Opposite Child Care Hospital, Navrangpura, Ahmedabad",Navrangpura,"Navrangpura, Ahmedabad",72.5498285,23.0437235,"Cafe, Beverages, Desserts, Pizza"
18385186,1,Ahmedabad,"The Cafe Baraco,34, Shribhuvan Complex, Near Memnagar Fire Station, Navrangpura, Ahmedabad",Navrangpura,"Navrangpura, Ahmedabad",72.5504755,23.0443367,"Cafe, Italian"
113325,1,Ahmedabad,"Nini's Kitchen,12, First Floor, Camps Corner 2, Opposite Prahlad Nagar Garden, Prahlad Nagar, Ahmedabad",Prahlad Nagar,"Prahlad Nagar, Ahmedabad",72.5072645,23.0117723,"North Indian, Continental, Beverages, Italian, Burger, Healthy Food, Mediterranean"
111826,1,Ahmedabad,"Yanki Sizzlers,4, Ground Floor, Binori Ambit, Next to Renault Showroom, Thaltej Circle, Thaltej, Ahmedabad",Thaltej,"Thaltej, Ahmedabad",72.5181257,23.0534466,"Continental, Italian, Chinese"
110516,1,Ahmedabad,"The Garden Cafe - The Fern,The Fern, Near Sola Overbridge, S G Highway, Sola, Ahmedabad","The Fern, Sola","The Fern, Sola, Ahmedabad",72.5222172,23.0640914,"North Indian, Italian, Asian, South Indian"
18371341,1,Ahmedabad,"Mazzo,27, Sunshine Villa, Sunrise Park Society, Vastrapur, Ahmedabad",Vastrapur,"Vastrapur, Ahmedabad",72.5281083,23.0418026,"Cafe, American, Continental, Armenian, Fast Food"
113570,1,Ahmedabad,"Turquoise Villa,Ground Floor, Shanay - 1, Near AMA, IIM Road, Vastrapur, Ahmedabad",Vastrapur,"Vastrapur, Ahmedabad",72.5434513,23.0285142,Continental
2400020,1,Allahabad,"Aryan Family's Delight,Ground Floor, Vinayak City Centre, Sardar Patel Marg, Civil Lines, Allahabad",Civil Lines,"Civil Lines, Allahabad",81.834502,25.454648,"North Indian, South Indian, Fast Food"
2400148,1,Allahabad,"Bean Here,Vinayak Pushp, 77 Elgin Road, Near Florista, Civil Lines, Allahabad",Civil Lines,"Civil Lines, Allahabad",81.83316667,25.45343611,"Cafe, Fast Food"
2400019,1,Allahabad,"Bikanerwala,2A, JMD Bhawan, Strachey Road, Civil Lines, Allahabad",Civil Lines,"Civil Lines, Allahabad",81.832616,25.451517,"North Indian, Street Food, Fast Food"
2400193,1,Allahabad,"Dewsis,2, MG Marg, Opposite Hanuman Mandir, Civil Lines, Allahabad",Civil Lines,"Civil Lines, Allahabad",0,0,"North Indian, Chinese"
2400027,1,Allahabad,"Friends Forever,13/13, Sardar Patel Marg, Civil Lines, Allahabad",Civil Lines,"Civil Lines, Allahabad",81.835585,25.457687,"North Indian, Chinese"
17960073,1,Allahabad,"Hotel Ravisha Continental,57 A, Purshottamdas Tandon Marg, Civil Lines, Allahabad",Civil Lines,"Civil Lines, Allahabad",0,0,"North Indian, South Indian, Chinese"
2400119,1,Allahabad,"KFC,P Square Mall, Civil Lines, Allahabad",Civil Lines,"Civil Lines, Allahabad",81.839744,25.449659,"American, Fast Food"
2400014,1,Allahabad,"McDonald's,Shop 4, 34-B, M G Marg, Civil Lines, Allahabad",Civil Lines,"Civil Lines, Allahabad",81.834279,25.450329,Fast Food
2400403,1,Allahabad,"Pind Balluchi,5-A, Sardar Patel Marg, Civil Lines, Allahabad",Civil Lines,"Civil Lines, Allahabad",0,0,"North Indian, Mughlai"
2400349,1,Allahabad,"Pizza Hut,31/31, Sardar Patel Marg, Civil Lines, Allahabad",Civil Lines,"Civil Lines, Allahabad",0,0,"Italian, Pizza"
2400279,1,Allahabad,"Subway,207/53, Mahatma Gandhi Marg, Civil Lines, Allahabad",Civil Lines,"Civil Lines, Allahabad",0,0,"Fast Food, American, Salad, Healthy Food"
2400017,1,Allahabad,"Tandoor Restaurant,17/33, Mahatama Gandhi Marg, Civil Lines, Allahabad",Civil Lines,"Civil Lines, Allahabad",81.860187,25.443994,"North Indian, Chinese"
18317988,1,Allahabad,"The BrewMaster,Near Vishal Megamart, Civil Lines, Allahabad",Civil Lines,"Civil Lines, Allahabad",81.83279631,25.45164569,"North Indian, Chinese, Italian"
2400144,1,Allahabad,"The Tamarind Tree,60 C, Thornhill Road, Civil Lines, Allahabad",Civil Lines,"Civil Lines, Allahabad",81.834841,25.459775,"South Indian, Chinese"
2400195,1,Allahabad,"Cafe El Chico,24, Mahatma Gandhi, Civil Lines, Allahabad",Civil Lines,"Civil Lines, Allahabad",81.83616667,25.44987222,"Continental, Italian"
2400052,1,Allahabad,"Eat On,Palace Compound, Near Palace Cinema, MG Marg, Civil Lines, Allahabad",Civil Lines,"Civil Lines, Allahabad",81.834236,25.450377,North Indian
2400016,1,Allahabad,"Hot Stuff,21 C, Lal Bhadhur Shastri Marg, Civil Lines, Allahabad",Civil Lines,"Civil Lines, Allahabad",81.841889,25.45235,"North Indian, Fast Food"
2400293,1,Allahabad,"Paradise,19/35, MG Marg, Civil Lines, Allahabad",Civil Lines,"Civil Lines, Allahabad",81.83168056,25.45031667,"Desserts, Fast Food"
2400009,1,Allahabad,"Sagar Ratna,3/3, Near Balson Crossing, Hashimpur Road, Tagore Town, Allahabad",Tagore Town,"Tagore Town, Allahabad",81.859682,25.457116,"South Indian, North Indian, Chinese, Continental"
2400010,1,Allahabad,"Moti Mahal Delux,Second Floor, Vinayak City Center Mall, SP Marg, Civil Lines, Allahabad","Vinayak City Centre Mall, Civil Lines","Vinayak City Centre Mall, Civil Lines, Allahabad",81.834492,25.454697,"Mughlai, North Indian, Chinese"
2200011,1,Amritsar,"Makhan Fish and Chicken Corner,21-A, Near Madaan Hospital, Majitha Road, Basant Nagar, Amritsar",Basant Nagar,"Basant Nagar, Amritsar",74.884359,31.64362,"North Indian, Chinese"
2200078,1,Amritsar,"Charming Chicken,Shop 3, Opposite Nari Nikaten, Majithia Road, Near Basant Nagar, Amritsar",Basant Nagar,"Basant Nagar, Amritsar",74.884384,31.644532,North Indian
18204507,1,Amritsar,"Ahuja Milk Bhandar,Dhab Khatikan, Near Hindu College, Hathi Gate, Amritsar",Hathi Gate,"Hathi Gate, Amritsar",0,0,Beverages
2200030,1,Amritsar,"Crystal Restaurant,Crystal Chowk, Queens Road, INA Colony, Amritsar",INA Colony,"INA Colony, Amritsar",74.875878,31.635658,"North Indian, Mughlai"
2200201,1,Amritsar,"Brijwasi Chat Bhandar,Crystal Chowk, Cooper Road, Near INA Colony",INA Colony,"INA Colony, Amritsar",74.87575556,31.63488333,Street Food
2200067,1,Amritsar,"Bubby Fish & Chicken Corner,Near Crystal Chowk, Cooper Road, INA Colony, Amritsar",INA Colony,"INA Colony, Amritsar",74.875828,31.635671,North Indian
2200358,1,Amritsar,"Bon Gateau,SCF 27, C Block Market, Ranjit Avenue, Amritsar",Ranjit Avenue,"Ranjit Avenue, Amritsar",0,0,"Cafe, Bakery, Fast Food"
2200001,1,Amritsar,"The Yellow Chilli,108, GRD Towers, District Shopping Center, Ranjit Avenue, Amritsar",Ranjit Avenue,"Ranjit Avenue, Amritsar",74.86276111,31.65558889,"North Indian, Mughlai, Chinese"
2200033,1,Amritsar,"La Roma Pizzeria,SCO 6, District Shopping Complex, Ranjit Avenue, Amritsar",Ranjit Avenue,"Ranjit Avenue, Amritsar",74.86299167,31.65044167,"Fast Food, Italian"
2200283,1,Amritsar,"Sakhis Watz Kukin,M 47, Green Avenue, opp Main Park, Amritsar",Ranjit Avenue,"Ranjit Avenue, Amritsar",74.8649101,31.6466891,"North Indian, Chinese"
2200045,1,Amritsar,"The Kulcha Land,Opposite M.K Hotel, District Shopping Centre, Ranjit Avenue, Amritsar",Ranjit Avenue,"Ranjit Avenue, Amritsar",74.86416667,31.65319167,"North Indian, Street Food"
2200149,1,Amritsar,"Shudh Restaurant,Opposite Gurudwara Saragarhi, Near Dharm Singh Market Chowk, Fuwara, Town Hall, Amritsar",Town Hall,"Town Hall, Amritsar",74.87981389,31.62404722,"North Indian, South Indian, Chinese, Fast Food"
2200043,1,Amritsar,"Bade Bhai Ka Brothers' Dhaba,Near Amritsar Municipal Corporation, Town Hall, Amritsar",Town Hall,"Town Hall, Amritsar",74.87461944,31.62394722,"North Indian, Fast Food"
2200044,1,Amritsar,"Bharawan Da Dhaba,Near Amritsar Municipal Corporation, Town Hall, Amritsar",Town Hall,"Town Hall, Amritsar",74.87833333,31.62615278,"North Indian, Fast Food"
2200132,1,Amritsar,"Brothers Dhaba,Golden Temple Out Road, Opposite Amritsar Municipal Corporation, Town Hall, Amritsar",Town Hall,"Town Hall, Amritsar",74.877666,31.625981,North Indian
2200236,1,Amritsar,"Brothers' Amritsari Dhaba,Phawara Chowk, Town Hall, Amritsar",Town Hall,"Town Hall, Amritsar",74.87957778,31.62261111,North Indian
2200175,1,Amritsar,"Gurdas Ram Jalebi Wala,Near Golden Temple, Town Hall, Amritsar",Town Hall,"Town Hall, Amritsar",0,0,Mithai
2200000,1,Amritsar,"Kesar Da Dhabha,Near Telephone Exchange, Chowk Passian, Shastri Market, Near Town Hall, Amritsar",Town Hall,"Town Hall, Amritsar",74.873005,31.624386,North Indian
2200055,1,Amritsar,"Beera Chicken Corner,Opposite Bandari Hospital, Sehaj Avenue, Majitha Road, Near White Avenue, Amritsar",White Avenue,"White Avenue, Amritsar",74.883997,31.641991,North Indian
2200034,1,Amritsar,"Surjit Food Plaza,Shop 4, Nehru Shopping Complex, Lawrence Road, White Avenue, Amritsar",White Avenue,"White Avenue, Amritsar",74.877002,31.644818,North Indian
2200153,1,Amritsar,"Kanha Sweets,Shop 1, Opposite Bijli Pehalwan Mandir, Lawrence Road, White Avenue, Amritsar",White Avenue,"White Avenue, Amritsar",0,0,Fast Food
2500023,1,Aurangabad,"Kream N Krunch,2, Near Akashwani Circle, Mahesh Nagar, Jalna Road, Akashwani, Aurangabad",Akashwani,"Akashwani, Aurangabad",75.34601667,19.87621944,"North Indian, Chinese, Continental, Italian"
2500076,1,Aurangabad,"Balbeer's Kitchen & Bar,Shendra, Near Cambridge School, Jalna Road, Chicalthana, Aurangabad",Chicalthana,"Chicalthana, Aurangabad",0,0,"Italian, Continental, Chinese, North Indian"
2500054,1,Aurangabad,"Angeethi Restaurant,Seven Hill Flyover, Jalna Road, Vidya Nagar, CIDCO, Aurangabad",CIDCO,"CIDCO, Aurangabad",75.35394167,19.87473333,"North Indian, Chinese"
2500134,1,Aurangabad,"Domino's Pizza,8, Upper Ground Floor, City Pride Commercial Complex, Kali Bawdi, Jalna Road, CIDCO, Aurangabad",CIDCO,"CIDCO, Aurangabad",75.340775,19.87610556,Pizza
2500069,1,Aurangabad,"Hotel Laadli,Goodwill Complex, Opposite Cidco Busstand, N-2, CIDCO, Aurangabad",CIDCO,"CIDCO, Aurangabad",75.3671268,19.8755223,"North Indian, South Indian"
2500256,1,Aurangabad,"Indiana Veg Restaurant,Plot 2, Near High Court, N-3, CIDCO, Aurangabad",CIDCO,"CIDCO, Aurangabad",75.360232,19.874449,"South Indian, North Indian, Chinese, Fast Food"
2500024,1,Aurangabad,"Madhuban Restaurant - Welcome Hotel Rama International,Welcome Hotel Rama International, Opposite High Court, CIDCO, Aurangabad",CIDCO,"CIDCO, Aurangabad",75.358888,19.875908,"North Indian, Chinese, Continental, Italian, Mexican"
2500075,1,Aurangabad,"Mauj Restaurant,31, Kailash Arcade, Opposite Bank of Baroda, Connaught Place, CIDCO, Aurangabad",CIDCO,"CIDCO, Aurangabad",75.36479167,19.87642778,"Italian, Fast Food, North Indian, Chinese"
2500029,1,Aurangabad,"Naivedya,Sakal Office, Jalna Road, CIDCO, Aurangabad",CIDCO,"CIDCO, Aurangabad",75.3684187,19.874103,North Indian
2500079,1,Aurangabad,"d' Curry House,Hotel Green Olive, Near Baba Petrol Pump, Nirala Bazar, Aurangabad","Hotel Green Olive, Nirala Bazar","Hotel Green Olive, Nirala Bazar, Aurangabad",75.316722,19.875337,"Continental, Chinese, Biryani, North Indian"
2500343,1,Aurangabad,"Mokoholic Juice Bar,Opposite Municipal Car Parking, Paithan Gate, Near Mondha, Aurangabad",Mondha,"Mondha, Aurangabad",0,0,"Juices, Desserts"
2500052,1,Aurangabad,"Ashoka's Veg Restaurant,31, Opposite Kohinoor Plaza, Near M P Law College, Nirala Bazar, Aurangabad",Nirala Bazar,"Nirala Bazar, Aurangabad",75.32340278,19.87963056,"South Indian, Chinese, North Indian"
2500062,1,Aurangabad,"Kareem's Fine Dining,A1-A3, Motiwala Complex, Below KFC Restaurant, Nirala Bazar, Aurangabad",Nirala Bazar,"Nirala Bazar, Aurangabad",75.32350278,19.88025556,"Mughlai, Biryani"
2500056,1,Aurangabad,"That Baat,Near Vivekanand College, Samarth Nagar, Nirala Bazar Road, Aurangabad",Nirala Bazar,"Nirala Bazar, Aurangabad",75.322405,19.875016,Maharashtrian
2500030,1,Aurangabad,"Bhoj Restaurant,First Floor, Bhau Pathak Smriti Kamgar Bhavan, CBS Road, Nirala Bazar, Aurangabad",Nirala Bazar,"Nirala Bazar, Aurangabad",75.317475,19.87802778,North Indian
2500390,1,Aurangabad,"Downside Up,6&7 B, Kuber Avenue, Rana Nagar, Near Nyay Nagar, Aurangabad",Nyay Nagar,"Nyay Nagar, Aurangabad",0,0,"Cafe, Mughlai, North Indian"
2500007,1,Aurangabad,"Kareem's Kabab & Biryani,First Floor, Food Court, Prozone Mall, MIDC Industrial Area, Chicalthana, Aurangabad","Prozone Mall, Chicalthana","Prozone Mall, Chicalthana, Aurangabad",75.37235278,19.87699444,Mughlai
2500123,1,Aurangabad,"Great Sagar Restaurant,Near Bhadkal Gate, VIP Road, Shahgunj, Aurangabad",Shahgunj,"Shahgunj, Aurangabad",75.321461,19.888716,"North Indian, Mughlai"
2500122,1,Aurangabad,"Kailash Restaurant,Rachanakar colony, Railway Station Road, Usmanpura, Aurangabad",Usmanpura,"Usmanpura, Aurangabad",75.31889444,19.86696944,"North Indian, Chinese, South Indian, Fast Food"
2500346,1,Aurangabad,"Yalla Yalla,Near Gopal Tea Corner, Usmanpura Circle, Usmanpura, Aurangabad",Usmanpura,"Usmanpura, Aurangabad",0,0,"North Indian, Hyderabadi"
50943,1,Bangalore,"Sultans of Spice,BluPetal Hotel, 60 Jyoti Nivas College Road, Koramangala 5th Block, Bangalore","BluPetal Hotel, Koramangala","BluPetal Hotel, Koramangala, Bangalore",77.61542793,12.93328392,"North Indian, Mughlai"
58268,1,Bangalore,"The Fatty Bao - Asian Gastro Bar,610, 3rd Floor, 12th Main, Off 80 Feet Road, Indiranagar, Bangalore",Indiranagar,"Indiranagar, Bangalore",77.64539558,12.97022064,Asian
51705,1,Bangalore,"Toit,298, Namma Metro Pillar 62, 100 Feet Road, Indiranagar, Bangalore",Indiranagar,"Indiranagar, Bangalore",77.64070876,12.9791658,"Italian, American, Pizza"
18162866,1,Bangalore,"Three Dots & A Dash,840/1,100 Feet Road, Metro Pillar 56-57, Indiranagar, Bangalore",Indiranagar,"Indiranagar, Bangalore",77.64048882,12.98041024,"European, Continental"
18407918,1,Bangalore,"Bombay Brasserie,2989/B, 12th Main Road, HAL 2nd Stage, Indiranagar, Bangalore",Indiranagar,"Indiranagar, Bangalore",77.645748,12.970324,Modern Indian
56464,1,Bangalore,"Glen's Bakehouse,297, 100 Feet Road, Indiranagar, Bangalore",Indiranagar,"Indiranagar, Bangalore",77.64062494,12.97909556,"Bakery, Desserts, Cafe"
18221572,1,Bangalore,"Onesta,501, Binnamangala Extension, 1st stage, C.M.H Road, Indiranagar, Bangalore",Indiranagar,"Indiranagar, Bangalore",77.64368467,12.97845292,"Pizza, Cafe, Italian"
18359919,1,Bangalore,"Onesta,Site 15, 15th Cross, 100 Feet Road, 4th Phase, JP Nagar, Bangalore",JP Nagar,"JP Nagar, Bangalore",77.59679094,12.90622878,"Pizza, Cafe, Italian"
18439634,1,Bangalore,"ECHOES Koramangala,44, 4th B Cross, Koramangala 5th Block, Bangalore",Koramangala 5th Block,"Koramangala 5th Block, Bangalore",77.615797,12.934179,"Continental, American, Italian, North Indian, Chinese, Cafe"
51040,1,Bangalore,"Truffles,28, 4th 'B' Cross, Koramangala 5th Block, Bangalore",Koramangala 5th Block,"Koramangala 5th Block, Bangalore",77.61429269,12.93329764,"American, Burger, Cafe"
54162,1,Bangalore,"The Black Pearl,105, 1st A Cross Road, Jyothi Nivas College Road, Koramangala 5th Block, Bangalore",Koramangala 5th Block,"Koramangala 5th Block, Bangalore",77.61615515,12.93436454,"North Indian, European, Mediterranean"
18305628,1,Bangalore,"Eat Street,11, 80 Feet Road, Opposite Indian Oil Petrol Pump, Koramangala 6th Block, Bangalore",Koramangala 6th Block,"Koramangala 6th Block, Bangalore",77.625999,12.939496,"North Indian, Chinese, Italian, Street Food, Desserts"
18385443,1,Bangalore,"Koramangala Social,118, Koramangala Industrial Area, Koramangala 7th Block, Bangalore",Koramangala 7th Block,"Koramangala 7th Block, Bangalore",77.61413042,12.93566181,"Continental, American"
56618,1,Bangalore,"AB's - Absolute Barbecues,90/4, 3rd Floor, Outer Ring Road, Munnekollaly Village, Marathahalli, Bangalore",Marathahalli,"Marathahalli, Bangalore",77.6993861,12.94993396,"European, Mediterranean, North Indian"
18353121,1,Bangalore,"Flechazo,9/1, 1st Floor, Above Surya Nissan, VRR Orchid, Doddanakkundi, Marathahalli, Bangalore",Marathahalli,"Marathahalli, Bangalore",77.696664,12.97537691,"Asian, Mediterranean, North Indian"
18366652,1,Bangalore,"Onesta,215, 216 & 220, Devasandra Village, Kasaba Hobli, New BEL Road, Bangalore",New BEL Road,"New BEL Road, Bangalore",77.5709967,13.0291977,"Pizza, Cafe, Italian"
18430785,1,Bangalore,"Communiti,67 & 68, Brigade Solitaire, Opposite to Advaith Hyundai, Residency Road, Bangalore",Residency Road,"Residency Road, Bangalore",77.60817859,12.97253153,Continental
58882,1,Bangalore,"Big Brewsky,Behind MK Retail, Before WIPRO Corporate Office, Sarjapur Road, Bangalore",Sarjapur Road,"Sarjapur Road, Bangalore",77.68323686,12.91304096,"Finger Food, North Indian, Italian, Continental, Thai, South Indian"
18422898,1,Bangalore,"Hoot,BBMP 2034/69, Block 2, Kaikondrahalli, Varthur Hobli, Sarjapur Road, Bangalore",Sarjapur Road,"Sarjapur Road, Bangalore",77.6784,12.914264,"Continental, Italian, North Indian"
18339874,1,Bangalore,"Farzi Cafe,202, Level 2, UB City, Vittal Mallya Road, Lavelle Road, Bangalore",UB City,"UB City, Bangalore",77.5960137,12.9721612,Modern Indian
2600472,1,Bhopal,"Black N White Cafe,G-1, Raksha Tower, Eden Garden, Arera Colony, Bhopal",Arera Colony,"Arera Colony, Bhopal",77.419399,23.211529,"Cafe, Chinese, North Indian"
2600514,1,Bhopal,"Maybe There,4th floor,10th Cross Road Building, Above Vishal Fitness Centre, 10 Main Road, Arera Colony, Bhopal",Arera Colony,"Arera Colony, Bhopal",0,0,Cafe
2600109,1,Bhopal,"Sagar Gaire Fast Food,10, Number Market, Arera Colony, Bhopal",Arera Colony,"Arera Colony, Bhopal",77.435361,23.214294,Fast Food
2600311,1,Bhopal,"The Kasbah,110/7, Mandakini, Opposite Union Bank, Kolar Main Road, Arera Colony, Bhopal",Arera Colony,"Arera Colony, Bhopal",77.41722744,23.18499152,"North Indian, Chinese"
2600008,1,Bhopal,"Bake N Shake,B-1, GM Tower,  Stop No. 10, Arera Colony, Bhopal",Arera Colony,"Arera Colony, Bhopal",77.434976,23.214459,Fast Food
2600031,1,Bhopal,"10 Downing Street,Third Floor, DB City Mall, Maharana Pratap Nagar, Bhopal","DB City, Maharana Pratap Nagar","DB City, Maharana Pratap Nagar, Bhopal",77.429989,23.232357,"North Indian, Chinese"
2600250,1,Bhopal,"Chi Kitchen,12-13, Food Court, DB City Mall, Maharana Pratap Nagar, Bhopal","DB City, Maharana Pratap Nagar","DB City, Maharana Pratap Nagar, Bhopal",0,0,Chinese
2600025,1,Bhopal,"Pizza Hut,Third Floor, DB City Mall, Arera Hills, Maharana Pratap Nagar, Bhopal","DB City, Maharana Pratap Nagar","DB City, Maharana Pratap Nagar, Bhopal",77.429845,23.232537,Pizza
2600494,1,Bhopal,"Kafe Kulture,A-66A, Jai Bhawani Housing Society, Bawadiyan Kalan, Gulmohar Colony, Bhopal",Gulmohar Colony,"Gulmohar Colony, Bhopal",0,0,"Cafe, Fast Food"
18108352,1,Bhopal,"Violet Hour,Shop 3-4, Plot 5B, Sai Mehndi Appartment, B.D.A,  Kohefiza Main Road, Kohefiza, Bhopal",Kohefiza,"Kohefiza, Bhopal",77.3796051,23.26626099,Bakery
2600079,1,Bhopal,"Bapu Ki Kutia,Behind Jyoti Cineplex, Zone 1, Maharana Pratap Nagar, Bhopal",Maharana Pratap Nagar,"Maharana Pratap Nagar, Bhopal",77.433571,23.233219,"North Indian, Chinese, South Indian, Fast Food"
2600340,1,Bhopal,"Da pizzeria,177, Zone 2, Maharana Pratap Nagar, Bhopal",Maharana Pratap Nagar,"Maharana Pratap Nagar, Bhopal",0,0,"Pizza, Italian, Fast Food"
18461339,1,Bhopal,"Papa Mexicano,R-24, Zone II, Maharana Pratap Nagar, Bhopal",Maharana Pratap Nagar,"Maharana Pratap Nagar, Bhopal",77.43702042,23.23079116,"Fast Food, Mexican, Tex-Mex"
2600010,1,Bhopal,"Bake N Shake,Near Jyoti Cineplex, Zone 1, Maharana Pratap Nagar, Bhopal",Maharana Pratap Nagar,"Maharana Pratap Nagar, Bhopal",0,0,Fast Food
2600230,1,Bhopal,"Manohar Dairy And Restaurant,132, Zone 1, Maharana Pratap Nagar, Bhopal",Maharana Pratap Nagar,"Maharana Pratap Nagar, Bhopal",77.434007,23.234249,"North Indian, South Indian, Street Food, Bakery"
2600003,1,Bhopal,"Manohar Dairy And Restaurant,6, Hamidia Road, Opposite Alpana Cineplex, Peer Gate Area, Bhopal",Peer Gate Area,"Peer Gate Area, Bhopal",77.408236,23.264015,"North Indian, South Indian, Street Food, Bakery"
2600303,1,Bhopal,"Kebabsville - Sayaji Hotel,A-3,Van Vihar Road, Prempura, TT Nagar, Bhopal",Sayaji Hotel,"Sayaji Hotel, Bhopal",77.373573,23.218998,North Indian
2600180,1,Bhopal,"Indian Coffee House,Near Apex Bank, TT Nagar, Bhopal",TT Nagar,"TT Nagar, Bhopal",77.401663,23.234631,South Indian
2600393,1,Bhopal,"The Urban Socialite,Hotel Lake View Ashoka, 5th Floor, Shyamla Hills, TT Nagar, Bhopal",TT Nagar,"TT Nagar, Bhopal",0,0,"Italian, Mexican, Chinese"
2600007,1,Bhopal,"Bake N Shake,Bhadbhada Road, Near Rang Mahal Talkies, TT Nagar, Bhopal",TT Nagar,"TT Nagar, Bhopal",77.398886,23.235123,Fast Food
2900587,1,Bhubaneshwar,"Tyre Patty,3rd Floor, BMC Bhawani Mall, Sahid Nagar, Bhubaneshwar","BMC Bhawani Mall, Sahid Nagar","BMC Bhawani Mall, Sahid Nagar, Bhubaneshwar",0,0,Cafe
2900354,1,Bhubaneshwar,"Silver Streak,Ground Floor, BMC Bhawani Mall, Sahid Nagar, Bhubaneshwar","BMC Bhawani Mall, Sahid Nagar","BMC Bhawani Mall, Sahid Nagar, Bhubaneshwar",85.846838,20.286333,Chinese
2900633,1,Bhubaneshwar,"Barbeque Nation,Plot 12-13/557, 3rd Floor, Mauza Samantapuri,Gajapati Nagar, Chandrasekharpur, Bhubaneshwar",Chandrasekharpur,"Chandrasekharpur, Bhubaneshwar",0,0,"Mediterranean, Asian, Continental, North Indian, Arabian"
18408676,1,Bhubaneshwar,"Central Perk 7,Plot 133/A, District Center, Chandrasekharpur, Bhubaneshwar",Chandrasekharpur,"Chandrasekharpur, Bhubaneshwar",85.81781287,20.32553933,"Cafe, Charcoal Grill, Steak"
2900234,1,Bhubaneshwar,"The Chicken Dinesty,District Center, Niladri Vihar Road, Chandrasekharpur, Bhubaneshwar",Chandrasekharpur,"Chandrasekharpur, Bhubaneshwar",85.81856667,20.32634444,"Fast Food, North Indian, Chinese"
2900550,1,Bhubaneshwar,"Taste Of China,139, District Center, Chandrasekharpur, Bhubaneshwar",Chandrasekharpur,"Chandrasekharpur, Bhubaneshwar",0,0,Chinese
18362677,1,Bhubaneshwar,"Michael's Kitchen,7798, Sainik School Road, Gajapati Nagar, Bhubaneswar, Gajapati Nagar, Bhubaneshwar",Gajapati Nagar,"Gajapati Nagar, Bhubaneshwar",85.83394811,20.31149633,"North Indian, Asian, European"
2900044,1,Bhubaneshwar,"Mamma Mia - Mayfair Lagoon,Mayfair Lagoon, 8-B, Jayadev Vihar, Bhubaneshwar","Mayfair Lagoon, Jayadev Vihar","Mayfair Lagoon, Jayadev Vihar, Bhubaneshwar",85.819178,20.301785,"Cafe, Italian, Mexican, Bakery"
2900469,1,Bhubaneshwar,"99 North Restaurant,B36, Chandaka Industrial Estate, Near CTTC, Patia, Bhubaneshwar",Patia,"Patia, Bhubaneshwar",85.80823611,20.34306944,"North Indian, Chinese"
2900219,1,Bhubaneshwar,"Adda,4th Floor, SJ Complex, KIIT College Road, Patia, Bhubaneshwar",Patia,"Patia, Bhubaneshwar",85.82272222,20.353675,"North Indian, Chinese, Mexican, Beverages"
2900473,1,Bhubaneshwar,"Chill Ummm,DS Tower, 2nd Floor, Plot 516/1763/4177, Near Big Bazar, Patia, Bhubaneshwar",Patia,"Patia, Bhubaneshwar",85.825257,20.35324774,"Chinese, North Indian, Cafe"
2900020,1,Bhubaneshwar,"Lal Qila,Sampark Vihar, Opposite Big Bazaar, KIIT Square, Patia, Bhubaneshwar",Patia,"Patia, Bhubaneshwar",85.82685,20.35299167,"Mughlai, Chinese, North Indian"
2900562,1,Bhubaneshwar,"Richard's Kitchen & Coffee Bar,Rooftop Bata Showroom, KIIT Square, Patia, Bhubaneshwar",Patia,"Patia, Bhubaneshwar",85.82599327,20.35343289,"Cafe, Chinese, Fast Food, Seafood"
18413814,1,Bhubaneshwar,"Aangan Horizon,Above Patia Pantaloons, Nandankanan Road, Patia, Bhubaneshwar",Patia,"Patia, Bhubaneshwar",85.82289287,20.34347604,"North Indian, Chinese, Continental"
18235390,1,Bhubaneshwar,"Brewberrys The Coffee Bar,3, Infocity Road, Patia, Bhubaneshwar",Patia,"Patia, Bhubaneshwar",85.81112333,20.34314407,Cafe
2900640,1,Bhubaneshwar,"Chai Break,KIIT Road, PS Plaza, Patia, Bhubaneshwar",Patia,"Patia, Bhubaneshwar",0,0,"Italian, Cafe, Chinese, Continental"
18271459,1,Bhubaneshwar,"JUGAAD JN.,KIIT Road, Opposite SBI, Patia, Bhubaneshwar",Patia,"Patia, Bhubaneshwar",85.82225987,20.35348061,"North Indian, Rajasthani"
18377283,1,Bhubaneshwar,"Cha cTea,797, Near Shivam Honda Showroom, Sahid Nagar, Bhubaneshwar",Sahid Nagar,"Sahid Nagar, Bhubaneshwar",85.84295925,20.29322917,"Cafe, Tea"
18408600,1,Bhubaneshwar,"Food Fever,A-54, Opposite Law University, Sahid Nagar, Bhubaneshwar",Sahid Nagar,"Sahid Nagar, Bhubaneshwar",85.84516996,20.29575519,"Chinese, North Indian"
2900012,1,Bhubaneshwar,"Mainland China,The Crown, A1, Near IRC Village, Nayapalli, Bhubaneshwar","The Crown, Nayapalli","The Crown, Nayapalli, Bhubaneshwar",85.818494,20.292363,Chinese
18436042,1,Bhubaneshwar,"Eram Rooftop,206, 3rd Floor, Suryansh Enclave, Shastri Nagar, Unit 4, Bhubaneshwar",Unit 4,"Unit 4, Bhubaneshwar",85.82669624,20.28398889,"Asian, Continental"
122003,1,Chandigarh,"The Night Factory,Phase 1, Chandigarh Industrial Area, Chandigarh",Chandigarh Industrial Area,"Chandigarh Industrial Area, Chandigarh",76.801234,30.71005476,"North Indian, Chinese, Continental, Pizza"
121552,1,Chandigarh,"Brooklyn Central,Courtyard, Elante Mall, Phase 1, Chandigarh Industrial Area, Chandigarh","Elante Mall, Chandigarh Industrial Area","Elante Mall, Chandigarh Industrial Area, Chandigarh",76.8009555,30.7050693,"American, Cafe"
121214,1,Chandigarh,"Chili's,312 B, 3rd Floor, Elante Mall, Phase 1, Chandigarh Industrial Area, Chandigarh","Elante Mall, Chandigarh Industrial Area","Elante Mall, Chandigarh Industrial Area, Chandigarh",76.8007752,30.7056682,"Mexican, American, Italian"
121553,1,Chandigarh,"Kylin Experience,312 A, 3rd Floor, Elante Mall, Phase 1, Chandigarh Industrial Area, Chandigarh","Elante Mall, Chandigarh Industrial Area","Elante Mall, Chandigarh Industrial Area, Chandigarh",76.80064,30.7056102,"Japanese, Chinese, Thai, Malaysian, Burmese, Asian"
121312,1,Chandigarh,"Mocha,Ground Floor, Elante Mall, Phase 1, Chandigarh Industrial Area, Chandigarh","Elante Mall, Chandigarh Industrial Area","Elante Mall, Chandigarh Industrial Area, Chandigarh",76.8008653,30.7051482,"Continental, Italian, Thai, Finger Food"
121335,1,Chandigarh,"Pirates of Grill,313, Third Floor, Elante Mall, Phase 1, Chandigarh Industrial Area, Chandigarh","Elante Mall, Chandigarh Industrial Area","Elante Mall, Chandigarh Industrial Area, Chandigarh",76.8009555,30.705775,"North Indian, Continental, Asian"
120014,1,Chandigarh,"Barbeque Nation,SCO 39, Madhya Marg, Sector 26, Chandigarh",Sector 26,"Sector 26, Chandigarh",76.8051917,30.7257045,"North Indian, Chinese"
123125,1,Chandigarh,"TGI Friday's,SCO 51, Madhya Marg, Sector 26, Chandigarh",Sector 26,"Sector 26, Chandigarh",76.8063634,30.7249431,"American, Tex-Mex"
120221,1,Chandigarh,"Pal Dhaba,SCO 151 & 152, Sector 28 D, Sector 28, Chandigarh",Sector 28,"Sector 28, Chandigarh",76.801316,30.7194841,North Indian
122064,1,Chandigarh,"Midnight Chef,SCO 329-332, Sector 35B, Sector 35, Chandigarh",Sector 35,"Sector 35, Chandigarh",76.76560555,30.72476574,"North Indian, Chinese, Continental, Italian, Burger"
120203,1,Chandigarh,"Nik Baker's,SCO 441 & 442, Sector 35 C, Sector 35, Chandigarh",Sector 35,"Sector 35, Chandigarh",76.76055595,30.72152328,"Bakery, Desserts, Cafe"
120219,1,Chandigarh,"OvenFresh,SCO 437 & 438, Sector 35 C, Sector 35, Chandigarh",Sector 35,"Sector 35, Chandigarh",76.7606106,30.7216086,"Cafe, Bakery"
121425,1,Chandigarh,"Super Donuts,SCO 446 Sector 35 C, Sector 35, Chandigarh",Sector 35,"Sector 35, Chandigarh",76.76028337,30.72137975,"Burger, Fast Food, Desserts, Beverages"
123010,1,Chandigarh,"Taco Bell,SCO 453-454, Sector 35C, Sector 35, Chandigarh",Sector 35,"Sector 35, Chandigarh",76.75984483,30.72114167,"Mexican, Fast Food"
123294,1,Chandigarh,"Karim's,SCO 33, Madhya Marg, Sector 7, Chandigarh",Sector 7,"Sector 7, Chandigarh",76.8009793,30.7306181,"Mughlai, North Indian"
121120,1,Chandigarh,"Virgin Courtyard,Backside, SCO 1A, Madhya Marg, Sector 7, Chandigarh",Sector 7,"Sector 7, Chandigarh",76.7976205,30.7334795,Italian
122940,1,Chandigarh,"Burgrill,Booth 70, Sector 8, Chandigarh",Sector 8,"Sector 8, Chandigarh",76.7978909,30.740827,"Burger, Fast Food"
122830,1,Chandigarh,"Uncle Jack's,Booth 11, Sector 8, Chandigarh",Sector 8,"Sector 8, Chandigarh",76.7972148,30.7408896,"Desserts, American"
69024,1,Chennai,"That Madras Place,34/29, 2nd Main Road, Kasturibai Nagar, Adyar, Chennai",Adyar,"Adyar, Chennai",80.250744,13.0058006,"European, Italian, Desserts"
72475,1,Chennai,"Haunted,273, F13, New Number 71, 2nd Main Road, Anna Nagar East, Chennai",Anna Nagar East,"Anna Nagar East, Chennai",80.2206723,13.0864385,"North Indian, Chinese, Arabian"
70431,1,Chennai,"Pantry d'or,21/11, J Block, 6th Avenue Main Road, Anna Nagar East, Chennai",Anna Nagar East,"Anna Nagar East, Chennai",80.2191037,13.0918088,"Continental, Cafe, Italian, Desserts"
71443,1,Chennai,"Palmshore,95, Jawaharlal Nehru Salai, Jafferkhanpet, Ashok Nagar, Chennai",Ashok Nagar,"Ashok Nagar, Chennai",80.20881157,13.02977985,"North Indian, Mughlai, Chinese, South Indian"
73088,1,Chennai,"Chili's,49 & 50 L, Express Avenue Mall, White's Road, Royapettah, Chennai","Express Avenue Mall,  Royapettah","Express Avenue Mall,  Royapettah, Chennai",80.264151,13.058616,"Mexican, American, Tex-Mex, Burger"
18423075,1,Chennai,"Writer's Cafe,98, Peter's Road, Behind Philip's Service Centre, Gopalapuram, Chennai",Gopalapuram,"Gopalapuram, Chennai",80.25722075,13.05434714,"Cafe, European"
70890,1,Chennai,"Fusilli Reasons,1/9, Dr. Vasudevan Street, Ormes Road, Kilpauk, Chennai",Kilpauk,"Kilpauk, Chennai",80.24851944,13.08187778,Italian
71492,1,Chennai,"Ciclo Cafe,47, Gandhi Mandapam Road, Kotturpuram, Chennai",Kotturpuram,"Kotturpuram, Chennai",80.24243889,13.02239444,"Cafe, Continental"
70092,1,Chennai,"Kaidi Kitchen,20/3, Bishop Wallers Avenue, Mylapore, Chennai",Mylapore,"Mylapore, Chennai",80.26147,13.044694,"Italian, Mexican, Chinese, Thai, North Indian"
70393,1,Chennai,"Bombay Brasserie,3, College Lane, Nungambakkam, Chennai",Nungambakkam,"Nungambakkam, Chennai",80.251865,13.066762,North Indian
70894,1,Chennai,"Maplai,14, Sterling Avenue, Nungambakkam, Chennai",Nungambakkam,"Nungambakkam, Chennai",80.23644167,13.06418056,"South Indian, Chettinad"
73279,1,Chennai,"Paradise,392, Anjali Devi Towers Kandanchavadi, OMR, Perungudi, Chennai",Perungudi,"Perungudi, Chennai",80.24998214,12.97279291,"Biryani, North Indian"
69951,1,Chennai,"L'amandier,57, 2nd Main Road, RA Puram, Chennai",RA Puram,"RA Puram, Chennai",80.25479067,13.02701773,"European, Cafe, Italian"
72497,1,Chennai,"Palmshore,Plot 8, Park Dugar, Mount Poonamallee High Road, Ramapuram, Chennai",Ramapuram,"Ramapuram, Chennai",80.17456822,13.02627908,"North Indian, Mughlai, Chinese, South Indian"
65413,1,Chennai,"Palmshore,111/108, Santhome High Road, Foreshore Estate, Santhome, Chennai",Santhome,"Santhome, Chennai",80.2752348,13.02628637,"North Indian, Mughlai, Chinese, South Indian"
70497,1,Chennai,"Basil With A Twist,58-A, Habibullah Road, T. Nagar, Chennai",T. Nagar,"T. Nagar, Chennai",80.24226844,13.04964535,"Continental, Cafe, Spanish, Italian, European, Greek, Mediterranean"
65055,1,Chennai,"Barbeque Nation,Shri Devi Park Hotel, 1, Hanumantha Road, North Usman Road, T. Nagar, Chennai",T. Nagar,"T. Nagar, Chennai",80.23311,13.045479,"North Indian, Continental"
18384227,1,Chennai,"AB's - Absolute Barbecues,Velachery Tharamani Link Road, Opposite TCS, Velachery, Chennai",Velachery,"Velachery, Chennai",80.231598,12.981615,"North Indian, European, Mediterranean"
72604,1,Chennai,"Coal Barbecues,17-18, Rajalakshmi Nagar, 7th Cross Street, 100 Feet Bypass Road, Velachery, Chennai",Velachery,"Velachery, Chennai",80.21811381,12.98604688,"North Indian, Mediterranean, Asian, Arabian"
66457,1,Chennai,"Pind,2, Sarathy Nagar, 1st Main Road, Velachery, Chennai",Velachery,"Velachery, Chennai",80.221898,12.975996,"North Indian, Chinese"
18260777,1,Coimbatore,"Kuchi n Kream,353/1, Hotel Landmark Complex, Bharathiaar Road, Gandhipuram, Coimbatore",Gandhipuram,"Gandhipuram, Coimbatore",76.9720757,11.01629845,"Cafe, Continental, Fast Food"
3000107,1,Coimbatore,"Haribhavanam Hotel,2, Bharathi Colony, Peelamedu, Coimbatore",Peelamedu,"Peelamedu, Coimbatore",76.995667,11.022477,"South Indian, Chettinad, North Indian"
3000132,1,Coimbatore,"Kites Cafe,267, B.R. Puram, Near Royal Enfield Showroom, Avinashi Road, Peelamedu, Coimbatore",Peelamedu,"Peelamedu, Coimbatore",77.015393,11.025083,Cafe
3000122,1,Coimbatore,"Zucca Pizzeria,GRG College Road, Opposite Rajasree Ford Showroom, Peelamedu, Coimbatore",Peelamedu,"Peelamedu, Coimbatore",77.00700302,11.02483917,Pizza
3001032,1,Coimbatore,"Burger Ka Baap,Avinashi Road, Near PSG College Of Technology, Peelamedu, Coimbatore",Peelamedu,"Peelamedu, Coimbatore",76.99959444,11.02216944,Fast Food
3000021,1,Coimbatore,"The Cascade Restaurant,479-B1, Avinashi Road, Near Suguna Kalyana Mandapam, Peelamedu, Coimbatore",Peelamedu,"Peelamedu, Coimbatore",76.99501667,11.02127778,Chinese
18434000,1,Coimbatore,"24 Plus Cafe & Restaurant,1A, Pollachi Main Road, Eachanari, Podanur, Coimbatore",Podanur,"Podanur, Coimbatore",76.971082,10.96185,"Continental, Fast Food, Desserts, Indian"
3000195,1,Coimbatore,"Valarmathi Kongunaatu Samayal,207/A, CSI Compound, Opposite Photo Centre, Race Course, Coimbatore",Race Course,"Race Course, Coimbatore",76.976268,11.001852,"South Indian, Biryani"
3000126,1,Coimbatore,"Bird On Tree,28, Opposite Circuit House, Behind HDFC, Race Course, Coimbatore",Race Course,"Race Course, Coimbatore",76.98431119,11.00863836,"Continental, Chinese, Thai, Malaysian, North Indian"
18280306,1,Coimbatore,"Tim's Bistro,156, Race Course Road, Race Course, Coimbatore",Race Course,"Race Course, Coimbatore",76.9754397,11.0030085,"North Indian, Continental"
3001489,1,Coimbatore,"Batlivala & Khanabhoy,122, 4th Floor, Appusamy Layout, Red Fields, Race Course, Coimbatore",Race Course,"Race Course, Coimbatore",76.98624135,11.00175265,"Parsi, North Indian"
3000770,1,Coimbatore,"Cafe Totaram,245/1, Near Veejay Hall, Raheja Apartment, Race Course, Coimbatore",Race Course,"Race Course, Coimbatore",76.98187642,11.00076241,"Cafe, Fast Food"
3000062,1,Coimbatore,"Cream Centre,128/180, Orbit Avenue, Thirugnanasambandam Road, Opposite Bishop Appasamy College, Gopalapuram, Race Course, Coimbatore",Race Course,"Race Course, Coimbatore",76.97649444,11.00366944,"North Indian, Chinese, Italian, Mexican"
3000016,1,Coimbatore,"On The Go,167, Race Course Road, Gopalapuram, Race Course, Coimbatore",Race Course,"Race Course, Coimbatore",76.975525,11.00368056,"Italian, North Indian, Desserts"
3000014,1,Coimbatore,"Sree Annapoorna,75, East Arokiasamy Road, RS Puram, Coimbatore",RS Puram,"RS Puram, Coimbatore",76.95173611,11.00668611,"South Indian, North Indian, Chinese"
3000001,1,Coimbatore,"That's Y Food,24/49, TV Swamy Road East, Opposite Emeral Building, RS Puram, Coimbatore",RS Puram,"RS Puram, Coimbatore",76.95295,11.010375,"North Indian, Biryani"
3001321,1,Coimbatore,"CakeBee,6/1, SRP Nagar, Saibaba Colony, Coimbatore",Saibaba Colony,"Saibaba Colony, Coimbatore",76.94465239,11.02611735,"Bakery, Desserts"
3000996,1,Coimbatore,"Yari,69, Bharathi Park, 6th Cross, Saibaba Colony, Coimbatore",Saibaba Colony,"Saibaba Colony, Coimbatore",76.940432,11.02091,"North Indian, Chinese, Street Food"
3001065,1,Coimbatore,"Cream Stone,Creamstone , 1335, Avinashi Road, Opposite Bharath Petrol Bunk, Peelamedu, Coimbatore","SMS Hotel, Peelamedu","SMS Hotel, Peelamedu, Coimbatore",76.9983492,11.02229761,"Desserts, Ice Cream"
3000048,1,Coimbatore,"Barbeque Nation,6th Floor, Metro Park Inn, 1000, Raja Street, Near Clock Tower, Town Hall, Coimbatore",Town Hall,"Town Hall, Coimbatore",76.96330278,10.99413611,"North Indian, European, Mediterranean"
3500012,1,Dehradun,"The Punjabi Essence Restaurant,27 B, Near Premier Plaza, Rajpur Road, Chukkuwala, Dehradun",Chukkuwala,"Chukkuwala, Dehradun",0,0,"North Indian, Chinese"
3500007,1,Dehradun,"Tirupati Restaurant,27 B, Rajpur Road, Opposite St. Joseph's Academy, Chukkuwala, Dehradun",Chukkuwala,"Chukkuwala, Dehradun",0,0,"South Indian, North Indian, Chinese"
3500017,1,Dehradun,"Anandam,69, Krishna Tower, Rajpur Road, Hathibarkala Salwala, Dehradun",Hathibarkala Salwala,"Hathibarkala Salwala, Dehradun",78.053162,30.335259,"Desserts, North Indian, Chinese, South Indian, Fast Food, Street Food"
3500018,1,Dehradun,"Town Table Restaurant,101, Rajpur Road, Hathibarkala Salwala, Dehradun",Hathibarkala Salwala,"Hathibarkala Salwala, Dehradun",78.060221,30.340722,"North Indian, Chinese, Continental"
3500011,1,Dehradun,"Kalsang Friends Corner,88 A, Opposite Osho, Chander Lok Colony, Rajpur Road, Hathibarkala Salwala, Dehradun",Hathibarkala Salwala,"Hathibarkala Salwala, Dehradun",78.062543,30.346994,"Chinese, Thai, Tibetan"
18416632,1,Dehradun,"The Great Indian Pub,138/345, Rajpur Road, Jakhan, Dehradun",Jakhan,"Jakhan, Dehradun",78.06802238,30.36128079,North Indian
18279289,1,Dehradun,"BMG - All Day Dining,140 A, Rajpur Road, Jakhan, Dehradun",Jakhan,"Jakhan, Dehradun",78.06888981,30.36268594,"Chinese, North Indian, Fast Food"
18408585,1,Dehradun,"Punjab Grill,Rajpur Road, Jakhan, Dehradun",Jakhan,"Jakhan, Dehradun",78.067079,30.359722,"Mughlai, North Indian"
3500059,1,Dehradun,"TBistro,Saina Inn, 3, Old Survey Road, Karanpur, Dehradun",Karanpur,"Karanpur, Dehradun",78.054222,30.332735,"North Indian, Chinese"
3500081,1,Dehradun,"Y Cafe & Restaurant,Hotel White House, Behind St. Joseph's Academy, Subhash Road, Karanpur, Dehradun",Karanpur,"Karanpur, Dehradun",78.049117,30.328174,Cafe
17971273,1,Dehradun,"Eddie's Patisserie,102 Yamuna Colony, Above Punjab National Bank, Chakrata Road, Dehradun",Krishna Nagar,"Krishna Nagar, Dehradun",0,0,Bakery
3500365,1,Dehradun,"First Gear Cafe,Khala Gaon, Near Shiv Mandir, Malsi, Dehradun",Malsi,"Malsi, Dehradun",0,0,"Cafe, Chinese"
3500013,1,Dehradun,"Dunkin Donuts,UG 03, Pacific Mall, Rajpur Road, Jakhan, Dehradun","Pacific Mall, Jakhan","Pacific Mall, Jakhan, Dehradun",78.070453,30.366322,"Burger, Desserts"
3500024,1,Dehradun,"Doon Darbar,43, Gandhi Road, Paltan Bazaar, Dehradun",Paltan Bazaar,"Paltan Bazaar, Dehradun",78.04026667,30.31952778,"North Indian, Mughlai"
3500488,1,Dehradun,"Razzmatazz,5, Pritam Road, Dalanwala, Near Race Course, Dehradun",Race Course,"Race Course, Dehradun",0,0,Cafe
3500505,1,Dehradun,"Barbeque Nation,Chaudhary Plaza, Rajpur Road, Rajpur, Dehradun",Rajpur,"Rajpur, Dehradun",78.061187,30.3425093,"North Indian, Mediterranean, Asian, Chinese"
3500010,1,Dehradun,"Black Pepper Restaurant,3, Astley Hall, Rajpur Road, Rajpur, Dehradun",Rajpur,"Rajpur, Dehradun",78.046106,30.327968,"North Indian, Chinese"
3500414,1,Dehradun,"Cafe Marigold,Near Shehanshahi Ashram, Old Mussorie Road, Rajpur, Dehradun",Rajpur,"Rajpur, Dehradun",0,0,"Cafe, Chinese, Fast Food"
18440677,1,Dehradun,"Jalapenos,Mussourie Diversion, Pacific Hills,Rajpur Road, Rajpur, Dehradun",Rajpur,"Rajpur, Dehradun",78.07715102,30.37220198,"Cafe, Mexican"
3500484,1,Dehradun,"Kalsang AMA Cafe,88, Opposite Osho, Chander Lok Colony, Rajpur Road, Rajpur, Dehradun",Rajpur,"Rajpur, Dehradun",0,0,Cafe
301728,1,Faridabad,"Desire Foods,G 25/22, Main Road, 40 Feet, Molarband Extension, Badarpur Border, Faridabad",Badarpur Border,"Badarpur Border, Faridabad",77.3066401,28.4900591,"Chinese, Fast Food, Bakery"
5992,1,Faridabad,"Knight Rock,11/6, Delhi Mathura Road, Near Bharat Petrol Pump, Badarpur Border, Faridabad",Badarpur Border,"Badarpur Border, Faridabad",77.304776,28.4901567,"North Indian, Chinese"
301730,1,Faridabad,"Punjab Restaurant,Main 40 Feet Road, Molarband Extension, Badarpur Border, Faridabad",Badarpur Border,"Badarpur Border, Faridabad",77.305563,28.4901368,North Indian
301729,1,Faridabad,"Raju Dhaba,Main 40 Feet Road, Molarband Extension, Badarpur Border, Faridabad",Badarpur Border,"Badarpur Border, Faridabad",77.3061016,28.4900979,North Indian
301731,1,Faridabad,"Rakheja Bakery,Main 40 Feet Road, Molarband Extension, Badarpur Border, Faridabad",Badarpur Border,"Badarpur Border, Faridabad",77.3057446,28.490062,Bakery
311053,1,Faridabad,"Snax Points,A-68/5, Near Mehra Petrol Pump, Main Tajpur Road, Badarpur Border, Faridabad",Badarpur Border,"Badarpur Border, Faridabad",77.3053835,28.4901198,"Chinese, North Indian, Fast Food"
9299,1,Faridabad,"Aggarwal Sweet Corner,Badarpur Border Chowk Post, Badarpur Border, Faridabad",Badarpur Border,"Badarpur Border, Faridabad",77.30274167,28.49629167,Mithai
9178,1,Faridabad,"Kashyap Vaishno Dhaba,Near Seble Cinema, Dharamveer Market, Badarpur Border, Faridabad",Badarpur Border,"Badarpur Border, Faridabad",77.303542,28.4959154,North Indian
18477319,1,Faridabad,"Total Food Court,B-222, Shishram Complex, Main Market, Badarpur Border, Faridabad",Badarpur Border,"Badarpur Border, Faridabad",0,0,"North Indian, Mughlai, Chinese"
18433852,1,Faridabad,"The Chaiwalas,Sector 21 A, Asian Hospital, Badhkal Chowk, Badkal Lake, Faridabad",Badkal Lake,"Badkal Lake, Faridabad",77.3000877,28.4262842,Cafe
304046,1,Faridabad,"Cafe And More,UGF 22, Charmwood Plaza, Eros Garden, Charmwood Village, Faridabad",Charmwood Village,"Charmwood Village, Faridabad",77.2905651,28.4946638,"Fast Food, North Indian"
309936,1,Faridabad,"Green Chick Chop,UG 58, Charmwood Plaza, Eros Garden Colony, Suraj Kund Road, Charmwood Village, Faridabad",Charmwood Village,"Charmwood Village, Faridabad",77.2905276,28.4946804,"Raw Meats, North Indian, Fast Food"
309927,1,Faridabad,"Kolkata Hot Kathi Rolls,Deepak Complex, Near Eros Garden, Charmwood Village, Faridabad",Charmwood Village,"Charmwood Village, Faridabad",77.2918292,28.4922473,"Fast Food, Chinese"
18377449,1,Faridabad,"Aapki Rasoi,HR-227, 60 Feet Road, Pul Pehlad Pur, Charmwood Village, Faridabad",Charmwood Village,"Charmwood Village, Faridabad",77.2918292,28.4990636,North Indian
18465871,1,Faridabad,"Fusion Food Corner,158/7, Opposite DDA Flat, Pul Pehlad Pur, Charmwood Village, Faridabad",Charmwood Village,"Charmwood Village, Faridabad",0,0,"North Indian, Chinese"
18472646,1,Faridabad,"Punjabi Rasoi,1, Deepak Complex, Eros Charmwood Village, Faridabad",Charmwood Village,"Charmwood Village, Faridabad",77.292431,28.4923251,North Indian
18037826,1,Faridabad,"Kebab Xpress,Shop 23-24, 2nd Floor, Crown Interiorz Mall, Sector 35, Faridabad","Crown Interiorz Mall, Sector 35, Faridabad","Crown Interiorz Mall, Sector 35, Faridabad, Faridabad",77.3074479,28.4698631,"North Indian, Mughlai"
301163,1,Faridabad,"McDonald's,12/7, 2nd Floor, Crown Interiorz Mall, Sector 35, Faridabad","Crown Interiorz Mall, Sector 35, Faridabad","Crown Interiorz Mall, Sector 35, Faridabad, Faridabad",77.3074479,28.4695043,"Fast Food, Burger"
4931,1,Faridabad,"Suruchi,29, 2nd Floor, Crown Interiorz Mall, Sector 35, Faridabad","Crown Interiorz Mall, Sector 35, Faridabad","Crown Interiorz Mall, Sector 35, Faridabad, Faridabad",77.3074479,28.4701322,"North Indian, South Indian, Gujarati, Rajasthani"
1804,1,Faridabad,"Berco's,Shop R-2, 3rd Floor, Crown Interiorz Mall, Sector 35, Faridabad","Crown Interiorz Mall, Sector 35, Faridabad","Crown Interiorz Mall, Sector 35, Faridabad, Faridabad",77.3072684,28.4700256,"Chinese, Thai"
312102,1,Faridabad,"Dunkin' Donuts,3, 2nd Floor, Crown Interiorz Mall, Near Toll Bridge, Sector 35, Faridabad","Crown Interiorz Mall, Sector 35, Faridabad","Crown Interiorz Mall, Sector 35, Faridabad, Faridabad",77.3074031,28.4693655,"Burger, Desserts, Fast Food"
18217857,1,Faridabad,"The Chocolate Room,10, 2nd Floor, Crown Interiorz Mall, Sector 35, Faridabad","Crown Interiorz Mall, Sector 35, Faridabad","Crown Interiorz Mall, Sector 35, Faridabad, Faridabad",77.3074031,28.4693655,"Cafe, Desserts"
18471268,1,Faridabad,"Baskin Robbin,Ground Floor, Crown Interiorz Mall, Sector 35, Faridabad","Crown Interiorz Mall, Sector 35, Faridabad","Crown Interiorz Mall, Sector 35, Faridabad, Faridabad",77.3074479,28.469594,Desserts
18381244,1,Faridabad,"Popcorn Fusion,Crown Interiorz Mall, Sector 35, Faridabad","Crown Interiorz Mall, Sector 35, Faridabad","Crown Interiorz Mall, Sector 35, Faridabad, Faridabad",77.3074031,28.4693655,Fast Food
18408041,1,Faridabad,"Subway,SF 25, 2nd Floor, Sector 35, Faridabad","Crown Interiorz Mall, Sector 35, Faridabad","Crown Interiorz Mall, Sector 35, Faridabad, Faridabad",77.3074928,28.4700019,"American, Fast Food, Salad, Healthy Food"
311051,1,Faridabad,"KFC,Shops 21-22, 2nd Floor, Crown Interiorz Mall, Sector 35, Faridabad","Crown Interiorz Mall, Sector 35, Faridabad","Crown Interiorz Mall, Sector 35, Faridabad, Faridabad",77.30706006,28.46980656,"American, Fast Food, Burger"
18133510,1,Faridabad,"Barbeque Nation,2nd Floor, Crown Interiorz Mall, Sector 35, Faridabad","Crown Interiorz Mall, Sector 35, Faridabad","Crown Interiorz Mall, Sector 35, Faridabad, Faridabad",77.3073785,28.4698629,North Indian
308380,1,Faridabad,"Yo! China,S-2, 2nd Floor, Crown Interiorz Mall, Sector 35, Faridabad","Crown Interiorz Mall, Sector 35, Faridabad","Crown Interiorz Mall, Sector 35, Faridabad, Faridabad",77.3074031,28.4693655,Chinese
6077,1,Faridabad,"Giani's,Food Court, Crown Plaza Mall, Sector 15-A,  Near, Sector 15, Faridabad","Crown Plaza Mall, Sector 15, Faridabad","Crown Plaza Mall, Sector 15, Faridabad, Faridabad",77.3130127,28.3980691,"Ice Cream, Desserts"
308082,1,Faridabad,"Momo-Cha,Crown Plaza Mall, Sector 15, Faridabad","Crown Plaza Mall, Sector 15, Faridabad","Crown Plaza Mall, Sector 15, Faridabad, Faridabad",77.3130127,28.3979794,Fast Food
309558,1,Faridabad,"Shree Rathnam,LG-28, Crown Plaza Mall, Sector 15-A, Sector 15, Faridabad","Crown Plaza Mall, Sector 15, Faridabad","Crown Plaza Mall, Sector 15, Faridabad, Faridabad",77.3128332,28.397424,"South Indian, North Indian, Chinese"
8128,1,Faridabad,"Mirage Restro Bar,2nd Floor, Crown Plaza Mall, Sector 15-A, Sector 15, Faridabad","Crown Plaza Mall, Sector 15, Faridabad","Crown Plaza Mall, Sector 15, Faridabad, Faridabad",77.3131025,28.3978083,"North Indian, Mughlai"
304062,1,Faridabad,"Jai Jagannath Hotel,E 51, Shiv Durga Vihar, Dayal Bagh, Faridabad",Dayal Bagh,"Dayal Bagh, Faridabad",77.294319,28.4937692,South Indian
9785,1,Faridabad,"Gelato Vinto,40 GF, Eldeco Station 1 Mall, Sector 12, Faridabad","Eldeco Station 1 Mall, Sector 12, Faridabad","Eldeco Station 1 Mall, Sector 12, Faridabad, Faridabad",77.3139102,28.3868454,"Desserts, Ice Cream"
312514,1,Faridabad,"Maggi Point,F-46 A, 1st Floor, Eldeco Mall, Sector 12, Faridabad","Eldeco Station 1 Mall, Sector 12, Faridabad","Eldeco Station 1 Mall, Sector 12, Faridabad, Faridabad",77.3140449,28.3869029,Fast Food
308961,1,Faridabad,"Angaar,Hotel Saffron Kiran, 12/6, Adjacent to Badarpur Toll, NH-2, Sector 35, Faridabad","Hotel Saffron Kiran, Faridabad","Hotel Saffron Kiran, Faridabad, Faridabad",77.3056977,28.4719854,"North Indian, Chinese"
308963,1,Faridabad,"TcozY,Hotel Saffron Kiran, 12/6, Adjacent to Badarpur Toll, NH-2, Sector 35, Faridabad","Hotel Saffron Kiran, Faridabad","Hotel Saffron Kiran, Faridabad, Faridabad",77.3066401,28.4722089,Cafe
308962,1,Faridabad,"The Retriever,Hotel Saffron Kiran, 12/6, Adjacent to Badarpur Toll, NH-2, Sector 35, Faridabad","Hotel Saffron Kiran, Faridabad","Hotel Saffron Kiran, Faridabad, Faridabad",77.3062507,28.4723428,"North Indian, Mughlai, Chinese"
8169,1,Faridabad,"Bangali Sweets & Restaurant,6, Plot 17, New DLF, Indraprastha Colony, Faridabad",Indraprastha Colony,"Indraprastha Colony, Faridabad",77.3153578,28.4534629,Mithai
309368,1,Faridabad,"Silver,K Hotel, Plot 2, Behind Pristine Mall, Sector 31, Faridabad",K Hotel,"K Hotel, Faridabad",77.316429,28.446715,"North Indian, Chinese, Continental"
18472429,1,Faridabad,"Chill 'N Grill,3C-188, Opposite Bharat Optical, NIT, Faridabad",NIT,"NIT, Faridabad",77.2900667,28.3954463,North Indian
18472418,1,Faridabad,"Punjabi Restaurant,3F/49, Sainik Colony Road, NIT, Faridabad",NIT,"NIT, Faridabad",77.2874809,28.3939512,"North Indian, Mughlai"
18472426,1,Faridabad,"Standard Chicken Point,3F/90, Sainik Colony Road, NIT Faridabad",NIT,"NIT, Faridabad",77.2875524,28.3940171,Mughlai
18450934,1,Faridabad,"The Grillz & Gravy,3G/1, NIT, Faridabad",NIT,"NIT, Faridabad",77.2922781,28.3982684,"North Indian, Chinese"
6025,1,Faridabad,"Cakes 'n Bakes - Park Plaza,Park Plaza, Sector 21 C, Sector 21, Faridabad","Park Plaza, Sector 21, Faridabad","Park Plaza, Sector 21, Faridabad, Faridabad",77.2969459,28.4292178,Bakery
6013,1,Faridabad,"Cafe Bite,UGF 35, Parsvanath City Mall, Sector 12, Faridabad","Parsavnath City Mall, Sector 12, Faridabad","Parsavnath City Mall, Sector 12, Faridabad, Faridabad",77.3144487,28.383665,Cafe
8153,1,Faridabad,"Cafe Light,Shop 38, Upper Ground Floor, Parsvnath City Mall, Sector 12, Faridabad","Parsavnath City Mall, Sector 12, Faridabad","Parsavnath City Mall, Sector 12, Faridabad, Faridabad",77.3144877,28.3837046,"Cafe, Chinese, Fast Food"
18471296,1,Faridabad,"Little Cafe,Shop 32, Upper Ground Floor, Parsvnath City Mall, Sector 12, Faridabad","Parsavnath City Mall, Sector 12, Faridabad","Parsavnath City Mall, Sector 12, Faridabad, Faridabad",77.3145373,28.3836738,"Fast Food, Beverages"
18279477,1,Faridabad,"Momo-Cha,J-121, Near Lean Wolf Gym, Sector 10, Faridabad",Sector 10,"Sector 10, Faridabad",77.3291609,28.3754863,"North Indian, Chinese"
18359331,1,Faridabad,"Oregano India,Shop 2661, Sector 7-10 Market, YMCA Road, Sector 10, Faridabad",Sector 10,"Sector 10, Faridabad",77.3266079,28.3689797,"Fast Food, Chinese, Italian"
301151,1,Faridabad,"Sagar Bakery,938, 7-10 Chowk, YMCA Road, Sector 10, Faridabad",Sector 10,"Sector 10, Faridabad",77.3270132,28.3692291,Bakery
18204479,1,Faridabad,"Smugglers,Near Big Bus, Sector 9-10 Road, Sector 10, Faridabad",Sector 10,"Sector 10, Faridabad",77.329628,28.3702087,North Indian
2198,1,Faridabad,"Welcome,J140, Sector 10, Faridabad",Sector 10,"Sector 10, Faridabad",77.3288978,28.3777541,"North Indian, Chinese"
18434243,1,Faridabad,"Giani's,Sector 10, Faridabad",Sector 10,"Sector 10, Faridabad",77.3270132,28.3692291,"Ice Cream, Desserts"
18273628,1,Faridabad,"Invitation,Invitation Inn Banquet & Rooms, DLF Sector 10, Faridabad",Sector 10,"Sector 10, Faridabad",0,0,North Indian
18471262,1,Faridabad,"New Dilight,H - 147, Sector 10, Faridabad",Sector 10,"Sector 10, Faridabad",77.3295018,28.3730138,"North Indian, Mughlai, Chinese"
18258480,1,Faridabad,"Chimney,SCF 9, Near Bank of India, Sector 11, Faridabad",Sector 11,"Sector 11, Faridabad",77.319026,28.3725172,"North Indian, Mughlai, Chinese"
9698,1,Faridabad,"Chopstick,Booth 15, Sector 11, Faridabad",Sector 11,"Sector 11, Faridabad",77.3185858,28.371835,Chinese
8326,1,Faridabad,"Hot & Tasty Chinese Food,18, DLF Market, Sector 11, Faridabad",Sector 11,"Sector 11, Faridabad",77.3184832,28.3719511,"North Indian, Chinese"
18270379,1,Faridabad,"Sanjha Chulha,Plot 1-A, Sector 11-D, Sector 11, Faridabad",Sector 11,"Sector 11, Faridabad",77.32157,28.3692881,"North Indian, Mughlai"
304006,1,Faridabad,"Frontier,Ground Floor, Parsvnath CIty Mall, Sector 12, Faridabad",Sector 12,"Sector 12, Faridabad",77.31429167,28.38339444,Bakery
308957,1,Faridabad,"Oxy Lounge,Town Park, Opposite District Court, Sector 12, Faridabad",Sector 12,"Sector 12, Faridabad",77.3244365,28.384502,"North Indian, Chinese, Italian"
18427216,1,Faridabad,"City Dhaba,11-12 Dividing Road, Sector 12, Faridabad",Sector 12,"Sector 12, Faridabad",77.3144456,28.3811924,"North Indian, Chinese"
18433315,1,Faridabad,"Garam Masala,Plot 6, Bata Chowk, BIryaniwali Gali, Sector 12, Faridabad",Sector 12,"Sector 12, Faridabad",0,0,"North Indian, Chinese"
8266,1,Faridabad,"Mittal Fast Food,10, Town Park, Sector 12, Faridabad",Sector 12,"Sector 12, Faridabad",77.32425,28.38471389,Fast Food
18383469,1,Faridabad,"Al Bake,SCF 58, Ground Floor, Sector 15, Faridabad",Sector 15,"Sector 15, Faridabad",77.3229299,28.395009,"North Indian, Chinese"
1367,1,Faridabad,"Anupam Sweet,SCF 74, Sector 15 Market, Sector 15, Faridabad",Sector 15,"Sector 15, Faridabad",77.3222568,28.3949008,"North Indian, South Indian, Chinese, Fast Food, Mithai"
9650,1,Faridabad,"Cafe Coffee Day,SCF 42, Shopping Centre, Main Huda Market, Sector 15, Faridabad",Sector 15,"Sector 15, Faridabad",77.3236112,28.3952671,Cafe
308335,1,Faridabad,"Chicago Pizza,Booth Number 135, Main Market, Sector 15, Faridabad",Sector 15,"Sector 15, Faridabad",77.3217184,28.3950296,Pizza
18391065,1,Faridabad,"Crispy Crust,Shop 19, HUDA Market, Opposite Mother Dairy, Sector 15, Faridabad",Sector 15,"Sector 15, Faridabad",77.3241683,28.3950992,"North Indian, Chinese, Fast Food"
301193,1,Faridabad,"Frontier,SCO 46, Main Market, Sector 15, Faridabad",Sector 15,"Sector 15, Faridabad",77.3235114,28.3951274,Bakery
18107832,1,Faridabad,"Gulab,Shop 33, Main Market, Sector 15, Faridabad",Sector 15,"Sector 15, Faridabad",77.3239437,28.3952906,"North Indian, South Indian, Fast Food, Street Food, Mithai"
18089254,1,Faridabad,"Hunger Cure Express,HUDA Market, Sector 15, Faridabad",Sector 15,"Sector 15, Faridabad",77.3217312,28.3946937,"Fast Food, Beverages"
312981,1,Faridabad,"Maitre Patissier,697, Sector 15, Faridabad",Sector 15,"Sector 15, Faridabad",0,0,Bakery
18082235,1,Faridabad,"Momo-Cha,87, Near City Chemist, Sector 15, Faridabad",Sector 15,"Sector 15, Faridabad",77.3224363,28.3951869,"Chinese, Fast Food"
18138421,1,Faridabad,"Nirula's,135, Lower Ground Floor, HUDA Market, Sector 15, Faridabad",Sector 15,"Sector 15, Faridabad",77.292179,28.452631,"Fast Food, Desserts, Ice Cream, Beverages"
18421965,1,Faridabad,"The Grub House,SCF 55, Main Market, Sector 15, Faridabad",Sector 15,"Sector 15, Faridabad",77.323244,28.3950834,"Cafe, North Indian, Chinese, Continental"
303267,1,Faridabad,"Twenty Four Seven,A-45/49, Sector 15, Faridabad",Sector 15,"Sector 15, Faridabad",77.3234608,28.3950913,"Fast Food, North Indian"
7471,1,Faridabad,"Cafe Parmesan,42, 1st Floor, HUDA Market, Sector 15, Faridabad",Sector 15,"Sector 15, Faridabad",77.3236479,28.3950766,Italian
18219542,1,Faridabad,"Briosca,Shop 45, Main Market, Sector 15, Faridabad",Sector 15,"Sector 15, Faridabad",77.3234235,28.3952798,"Bakery, Fast Food"
18355112,1,Faridabad,"Burger Point,Shop 105, Sector 15, Faridabad",Sector 15,"Sector 15, Faridabad",77.3220773,28.3949736,"Burger, Fast Food"
18270895,1,Faridabad,"Cafe Grub Up,SCF 43, 2nd Floor, Main Market, Sector 15, Faridabad",Sector 15,"Sector 15, Faridabad",77.3235233,28.395196,"Cafe, American, Mexican, Italian, Thai"
18313839,1,Faridabad,"Cakes At Bhawanas,418, 1st Floor, Sector 15, Faridabad",Sector 15,"Sector 15, Faridabad",77.317231,28.393261,Bakery
5005,1,Faridabad,"Chaudhary Bhojnalaya,HUDA Market, Sector 15, Faridabad",Sector 15,"Sector 15, Faridabad",77.3240517,28.3953389,North Indian
1820,1,Faridabad,"Chickenette,11 & 12, Main Market, Sector 15, Faridabad",Sector 15,"Sector 15, Faridabad",77.3244107,28.3951035,"Raw Meats, North Indian, Chinese, Fast Food"
3863,1,Faridabad,"Giani,125, Near Gurudwara, Sector 15, Faridabad",Sector 15,"Sector 15, Faridabad",77.3216428,28.3951385,"Ice Cream, Desserts"
9814,1,Faridabad,"Green Chick Chop,135, Main Market, Sector 15, Faridabad",Sector 15,"Sector 15, Faridabad",77.3244107,28.3951932,"Raw Meats, North Indian, Fast Food"
18474912,1,Faridabad,"Hash Stix,Shop 160, Sector 15, Faridabad",Sector 15,"Sector 15, Faridabad",77.32343964,28.39483205,Fast Food
18161568,1,Faridabad,"Juice On Go,SCF 46-50, 1st Floor, Fitstop Gym, Main Market, Sector 15, Faridabad",Sector 15,"Sector 15, Faridabad",77.32328642,28.39527358,"Juices, Beverages"
18416829,1,Faridabad,"Keventers,Booth 125-P, Ground Floor, Huda Market, Sector 15, Faridabad",Sector 15,"Sector 15, Faridabad",77.3218081,28.3947688,Beverages
18400756,1,Faridabad,"MD's Kebabs & Curries,Shop 18, Opposite Mother Dairy, Sector 15 Market, Sector 15, Faridabad",Sector 15,"Sector 15, Faridabad",77.3244107,28.395283,"North Indian, Mughlai, Chinese"
301177,1,Faridabad,"Perfect Bake,DSS-48, Huda Market, Sector 15, Faridabad",Sector 15,"Sector 15, Faridabad",77.29659833,28.43002333,"Bakery, Fast Food"
6161,1,Faridabad,"Perfect Bake,SCF 40, Main Market, Sector 15, Faridabad",Sector 15,"Sector 15, Faridabad",77.3231543,28.3952545,"Bakery, Fast Food"
2565,1,Faridabad,"Sethi's Delicacy,9 & 10, Main Market, Sector 15, Faridabad",Sector 15,"Sector 15, Faridabad",77.3244651,28.3950376,"Fast Food, Bakery"
3866,1,Faridabad,"Subway,SCF 78, HUDA Market, Sector 15, Faridabad",Sector 15,"Sector 15, Faridabad",77.3219427,28.3948264,"American, Fast Food, Salad, Healthy Food"
18250288,1,Faridabad,"Cafí© Bogchi,SCF 39, First Floor, Above Axis Bank, Sector 15, Faridabad",Sector 15,"Sector 15, Faridabad",77.32380275,28.39572041,"Cafe, Italian, Mexican, Continental"
1430,1,Faridabad,"Ashoka Restaurant,Main Market, Sector 16, Faridabad",Sector 16,"Sector 16, Faridabad",77.3203273,28.4104693,North Indian
18393702,1,Faridabad,"Baskin Robbins,Shop 60, Near Sagar Cinema, Sector 16, Faridabad",Sector 16,"Sector 16, Faridabad",77.3201927,28.4107707,Ice Cream
6152,1,Faridabad,"China Hot Pot,Shop 147, HUDA Market, Sector 16, Faridabad",Sector 16,"Sector 16, Faridabad",77.3192063,28.4106963,"Chinese, Fast Food"
306962,1,Faridabad,"Handi Chhadeyan Di,Shop 138, HUDA Market, Near HDFC Bank, Sector 16, Faridabad",Sector 16,"Sector 16, Faridabad",77.3185323,28.4106593,North Indian
18445360,1,Faridabad,"Hungrill,Booth 110, HUDA Market, Near ICICI Bank, Sector 16, Faridabad",Sector 16,"Sector 16, Faridabad",77.3190765,28.4108198,"North Indian, Chinese, Continental"
6150,1,Faridabad,"Kant Khana Khazana,135, Huda Market, Sector 16, Faridabad",Sector 16,"Sector 16, Faridabad",77.318667,28.4106772,North Indian
18421024,1,Faridabad,"Open Yard,SCO 22-23, Main Market, Sector 16, Faridabad",Sector 16,"Sector 16, Faridabad",77.3199015,28.4095652,"North Indian, Chinese, Continental"
18471260,1,Faridabad,"Recipe Badshah,Shop 98, Sabzi Mandi, Sector 16, Faridabad",Sector 16,"Sector 16, Faridabad",0,0,North Indian
18367316,1,Faridabad,"The Chai Cafe,Shop 123, HUDA Market, Sector 16, Faridabad",Sector 16,"Sector 16, Faridabad",77.3185772,28.4108878,"Cafe, Chinese"
18466931,1,Faridabad,"Apna Restaurant,Booth 146, HUDA Market, Sector 16, Faridabad",Sector 16,"Sector 16, Faridabad",77.3190262,28.4105451,North Indian
18466420,1,Faridabad,"Chaudhary Chaap & Chinese,Shop 137, Huda Market, Sector 16, Faridabad",Sector 16,"Sector 16, Faridabad",77.3187017,28.4106649,"Chinese, North Indian"
18464607,1,Faridabad,"Chings Chinese,Near Gold Gym, Behind Petro Pump Sector 16, Faridabad",Sector 16,"Sector 16, Faridabad",77.3200132,28.4118307,Chinese
18464631,1,Faridabad,"Food On Wheels,Near Gold Gym, Behind Petrol Pump, Sector 16, Faridabad",Sector 16,"Sector 16, Faridabad",77.3202824,28.4120355,Chinese
301170,1,Faridabad,"Gulshan Hotel,Booth 2, Main Huda Market, Sector 16, Faridabad",Sector 16,"Sector 16, Faridabad",77.3203273,28.4104693,North Indian
18466939,1,Faridabad,"Maa Kali Foods,SCO 35, HUDA Market, Sector 16, Faridabad",Sector 16,"Sector 16, Faridabad",77.3196991,28.4104999,Chinese
18380180,1,Faridabad,"The Street Kitchen,Shop 139, Main HUDA Market, Sector 16, Faridabad",Sector 16,"Sector 16, Faridabad",77.3185772,28.4107084,"North Indian, Chinese"
18466407,1,Faridabad,"United Kitchen,2nd Floor, SCO 95, HUDA Market, Sector 16, Faridabad",Sector 16,"Sector 16, Faridabad",77.3189708,28.4120254,Fast Food
304001,1,Faridabad,"Eat N Treat,145, Main Market, Sector 17, Faridabad",Sector 17,"Sector 17, Faridabad",77.3266023,28.4101024,"Chinese, North Indian"
8319,1,Faridabad,"Hotel Ekant,12 - 14, Sector 17, Faridabad",Sector 17,"Sector 17, Faridabad",77.329167,28.4101795,"North Indian, Mughlai, Chinese"
303871,1,Faridabad,"Momo-Cha,31, Near HDFC Bank ATM, Sector 17 Market, Sector 17, Faridabad",Sector 17,"Sector 17, Faridabad",77.3288978,28.4106029,"North Indian, Chinese"
8321,1,Faridabad,"Paradise Inn,124, Near OBC Bank, Sector 17 Market, Faridabad, Sector 17, Faridabad",Sector 17,"Sector 17, Faridabad",77.3275764,28.4103725,"North Indian, Mughlai, Chinese"
311047,1,Faridabad,"Red Chilli,Shop 140, Back Side, Main Market, Sector 17, Faridabad",Sector 17,"Sector 17, Faridabad",77.326744,28.4099515,Chinese
8320,1,Faridabad,"Shiv Restaurant,122 & 123, HUDA Market, Sector 17, Faridabad",Sector 17,"Sector 17, Faridabad",77.3278324,28.4101647,North Indian
8308,1,Faridabad,"Sohan Sweets & Namkeen,115 & 116, Sector 17, Faridabad",Sector 17,"Sector 17, Faridabad",77.3279106,28.4103306,Mithai
18303717,1,Faridabad,"The Binge Box Cafe,1st  Floor, 110, HUDA Market, Sector 17, Faridabad",Sector 17,"Sector 17, Faridabad",77.3279106,28.4105998,Cafe
304004,1,Faridabad,"Tmos Moving Feast,156, Main Market, Sector 17, Faridabad",Sector 17,"Sector 17, Faridabad",77.32609671,28.4101156,"Chinese, North Indian"
18472625,1,Faridabad,"Tmos Cafe Corner,Shop 164, Huda Market, Sector 17, Faridabad",Sector 17,"Sector 17, Faridabad",77.326227,28.409801,Cafe
18420432,1,Faridabad,"Parkash Dhaba,Shop 32, HUDA Market, Sector 19, Faridabad",Sector 19,"Sector 19, Faridabad",77.3138205,28.417529,"North Indian, Chinese"
9824,1,Faridabad,"Sanjha Chulha,Booth 16, Part 2 Market, Sector 19, Faridabad",Sector 19,"Sector 19, Faridabad",77.3144487,28.4175882,"North Indian, Mughlai"
8029,1,Faridabad,"Hareram Bikanerzaika,77 & 78, HUDA Market, Opposite Community Centre, Sector 21 C, Near Sector 21, Faridabad",Sector 21,"Sector 21, Faridabad",77.2969594,28.4304159,"Mithai, Street Food"
312788,1,Faridabad,"Kulcha Paaji,Opposite 21-C Market, Sector 21, Faridabad",Sector 21,"Sector 21, Faridabad",77.2967664,28.4317132,Street Food
309672,1,Faridabad,"Shree Bikaner Misthan Bhandar,DSS 44, Sector 21, Faridabad",Sector 21,"Sector 21, Faridabad",77.2964432,28.4301217,"Street Food, South Indian, Mithai"
18359861,1,Faridabad,"The Hub - Gourmet, Bakers & More,Asian Institute of Medical Sciences, Badkal Flyover, Sector 21 A, Sector 21, Faridabad",Sector 21,"Sector 21, Faridabad",0,0,"Bakery, Fast Food"
18439547,1,Faridabad,"Anand Dhaba,DSS-38, Sector 21C Market, Sector 21, Faridabad",Sector 21,"Sector 21, Faridabad",77.2963379,28.4298355,North Indian
18241538,1,Faridabad,"Bikaneri Sweets & Restaurant,Ankhir Road, Near Union Bank, Opposite Sector 21-D, Sector 21, Faridabad",Sector 21,"Sector 21, Faridabad",0,0,"Mithai, North Indian"
18452730,1,Faridabad,"Delicieux Ice Cream Rolls,Shop 73, Main Market, Sector 21 C, Sector 21, Faridabad",Sector 21,"Sector 21, Faridabad",77.2969354,28.4300562,"Ice Cream, Desserts, Beverages"
18317486,1,Faridabad,"Flying Tandoor,Shop 57, Sector 21D Market, Sector 21, Faridabad",Sector 21,"Sector 21, Faridabad",77.291919,28.4221037,"North Indian, Fast Food"
18432933,1,Faridabad,"Food Station,G-5, Post Office Gali, Indra Enclave, Sector 21-D, Sector 21, Faridabad",Sector 21,"Sector 21, Faridabad",0,0,"North Indian, Mughlai, Chinese"
18452267,1,Faridabad,"Grub Hub,Shop 11, HUDA Main Market, Behind Park Plaza Hotel, Sector 21-C, Sector 21, Faridabad",Sector 21,"Sector 21, Faridabad",77.2964494,28.4296999,Asian
18466980,1,Faridabad,"Punjabi Chulha,Shop 16, Sector 21C, Sector 21, Faridabad",Sector 21,"Sector 21, Faridabad",77.2965369,28.4298396,North Indian
18469937,1,Faridabad,"Purani Dilli Da Swad,Shop 52, Sector 21C Market, Sector 21, Faridabad",Sector 21,"Sector 21, Faridabad",77.2966226,28.4301909,"Street Food, Fast Food"
18466937,1,Faridabad,"The BBQ Garden,Plot 1, Sector 21, Faridabad",Sector 21,"Sector 21, Faridabad",0,0,"North Indian, Seafood"
18433879,1,Faridabad,"The Chaiwalas,Asian Institute of Medical Sciences, Near Badhkal Road, Sector 21, Faridabad",Sector 21,"Sector 21, Faridabad",77.3002223,28.4263417,Cafe
18369105,1,Faridabad,"Funk House Cafe,Plot 2347, Near Sector 28 Metro Station, Sector 28, Faridabad",Sector 28,"Sector 28, Faridabad",77.31297973,28.43892133,"Cafe, Italian, Salad"
18133473,1,Faridabad,"Shiksha Fast Food,13, Near Water Tank, HUDA Market, Sector 28, Faridabad",Sector 28,"Sector 28, Faridabad",77.315069,28.4353341,"Fast Food, Chinese"
18458540,1,Faridabad,"Hungry Head,Near Reliance Fresh, Huda Market, Sector 28, Faridabad",Sector 28,"Sector 28, Faridabad",77.3150688,28.4353375,"Street Food, Fast Food"
18482753,1,Faridabad,"Tandoori Hut,Shop 77-78, Near Balaji Sweets, Main Huda Market Sector 28, Faridabad",Sector 28,"Sector 28, Faridabad",0,0,North Indian
8167,1,Faridabad,"Lalit Kathi Rolls Momos,Main HUDA Market, Sector 29, Faridabad",Sector 29,"Sector 29, Faridabad",77.3211256,28.4334516,Fast Food
18463990,1,Faridabad,"Tamasha In Tafree,2nd Floor, Main HUDA Market, Sector 29, Faridabad",Sector 29,"Sector 29, Faridabad",77.3212535,28.4334249,Cafe
18353030,1,Faridabad,"Oh My!,Shop 45, Ground floor, SLF MALL, IP Colony, Sector 30, Faridabad",Sector 30,"Sector 30, Faridabad",0,0,"Chinese, Fast Food"
18420465,1,Faridabad,"Butter & Grace,14/5, SRS Tower, Ground Floor, Sector 31, Faridabad",Sector 31,"Sector 31, Faridabad",77.309147,28.446933,"North Indian, Chinese, Italian, Fast Food"
309656,1,Faridabad,"Green Chick Chop,DSS 24, Shopping Centre, Sector 31, Faridabad",Sector 31,"Sector 31, Faridabad",77.317127,28.4465451,"Raw Meats, North Indian, Fast Food"
305235,1,Faridabad,"Snacks Bar,Near Pristine Mall, Sector 31, Faridabad",Sector 31,"Sector 31, Faridabad",77.315795,28.4452616,Chinese
309654,1,Faridabad,"Ahata,Huda Market, Sector 31, Faridabad",Sector 31,"Sector 31, Faridabad",77.31723889,28.44589444,North Indian
18480389,1,Faridabad,"Fritrolla,Choudhary Hetram Complex, 30-31 Dividing Road, Sector 31, Faridabad",Sector 31,"Sector 31, Faridabad",0,0,Desserts
18446428,1,Faridabad,"KitchenYard,13/6, Mathura Road, SSR Cooperate Park, Opp NHPC Chowk Metro Station, Sector 31, Faridabad",Sector 31,"Sector 31, Faridabad",0,0,North Indian
4462,1,Faridabad,"Meghansh Bakery,DSS-28, Sector 31, Faridabad",Sector 31,"Sector 31, Faridabad",77.3170515,28.4466361,"Bakery, Desserts"
18469962,1,Faridabad,"Oh My !,Ground Floor, 45 SLF Mall, IP Colony, Sector-30-33, Faridabad",Sector 31,"Sector 31, Faridabad",77.3159508,28.4549967,"North Indian, Chinese"
18380284,1,Faridabad,"The Dark Hour - Kitchen,Block 7, Spring Fields Colony, Sector 31, Faridabad",Sector 31,"Sector 31, Faridabad",0,0,Italian
1414,1,Faridabad,"Anupama Sweets & Family Restaurant,SCF 3, Ashoka Enclave Part 1, Near Kanishka Tower, Sector 34, Faridabad",Sector 34,"Sector 34, Faridabad",77.3149118,28.4718644,"Mithai, North Indian, South Indian, Chinese, Fast Food"
304112,1,Faridabad,"Shree Rathnam,Ground Floor, Ridhi Sidhi Plaza, Ashoka Main, Sector 34, Faridabad",Sector 34,"Sector 34, Faridabad",77.3107195,28.471413,"South Indian, North Indian, Chinese"
18472443,1,Faridabad,"Bikaner Misthan Bhandar,Ground Floor, Ridhi Sidhi Plaza, Ashoka Main, Sector 35, Faridabad",Sector 35,"Sector 35, Faridabad",77.3108138,28.471302,"Mithai, Street Food, Fast Food"
18456807,1,Faridabad,"King's Kitchen,SCF-1, Shop 5, Ashoka Enclave Main, Sector 35, Faridabad",Sector 35,"Sector 35, Faridabad",77.3108138,28.471302,"North Indian, Mughlai, Chinese"
18471284,1,Faridabad,"Muradabadi Chicken Biryani Corner,12/4, Sarai Khawaja, Banarasi Market, Near Toll Gate, Main Mathura Road, Sector 37, Faridabad",Sector 35,"Sector 35, Faridabad",77.3060306,28.4749127,Mughlai
18471328,1,Faridabad,"The Black Kettle,Ground Floor, Ridhi Sidhi Plaza, Ashoka Main, Sector 35, Faridabad",Sector 35,"Sector 35, Faridabad",77.3105616,28.4711559,"Fast Food, Beverages"
18204478,1,Faridabad,"Desi Tadka,Shop 1, Devi Sahai Market, Sector 37, Faridabad",Sector 37,"Sector 37, Faridabad",77.30693936,28.48429689,"North Indian, Mughlai, Chinese"
18444264,1,Faridabad,"Destination Live,Shop 5, 12/2, Sector 37, Faridabad",Sector 37,"Sector 37, Faridabad",77.3062811,28.4807864,"North Indian, Mughlai, Chinese"
9224,1,Faridabad,"Kay's Bake Land,14, Huda Market, Sector 37, Faridabad",Sector 37,"Sector 37, Faridabad",77.3116575,28.480381,"Bakery, Desserts"
8054,1,Faridabad,"Kay's Food Land,129, HUDA Shopping Centre, Sector 37, Faridabad",Sector 37,"Sector 37, Faridabad",77.3104099,28.4805482,"Bakery, Desserts"
304114,1,Faridabad,"Laziz Restaurant,Shop 14, Devi Sahai Market, Sector 37, Faridabad",Sector 37,"Sector 37, Faridabad",77.30677778,28.48426667,"North Indian, Mughlai"
1413,1,Faridabad,"Le Chef Restro Bar,SCF 146/37, HUDA Complex, Delhi Badarpur Border, Near Main Mathura Road, Sector 37, Faridabad",Sector 37,"Sector 37, Faridabad",77.3104996,28.480467,"North Indian, Chinese"
1715,1,Faridabad,"Republic of Chicken,106, Huda Market, Sector 37, Faridabad",Sector 37,"Sector 37, Faridabad",77.3107689,28.4805821,"Raw Meats, Fast Food"
4464,1,Faridabad,"Tanishka Restaurant & Caterers,Shop 44, Huda Market, Sector 37, Faridabad",Sector 37,"Sector 37, Faridabad",77.3113972,28.4805517,"North Indian, Chinese"
5010,1,Faridabad,"The Tandoori Times,22, HUDA Market, Main Road, Sector 37, Faridabad",Sector 37,"Sector 37, Faridabad",77.3115506,28.4804188,North Indian
301127,1,Faridabad,"Twist of Italy,92, HUDA Market, Sector 37, Faridabad",Sector 37,"Sector 37, Faridabad",77.3109543,28.4807634,"Chinese, Fast Food"
9233,1,Faridabad,"Aggarwal Sweets And Caterers,Anangpur Dairy, Devi Sahay Market, Near, Sector 37, Faridabad",Sector 37,"Sector 37, Faridabad",77.3066403,28.48420819,"Mithai, Street Food"
18471246,1,Faridabad,"Biryani Bot,HUDA Market, Sector 37, Faridabad",Sector 37,"Sector 37, Faridabad",77.311746,28.4805778,Biryani
18446082,1,Faridabad,"Cafí© Kitchen,Shop 65, HUDA Market, Sector 37, Faridabad",Sector 37,"Sector 37, Faridabad",77.3114869,28.4808293,"North Indian, Chinese"
18396398,1,Faridabad,"Evergreen Sweets & Restaurant,SCF 147, hUDA Market, Sector 37, Faridabad",Sector 37,"Sector 37, Faridabad",77.3106046,28.4803991,"North Indian, South Indian, Chinese, Fast Food"
18471244,1,Faridabad,"Magic Spice Wok,Shop 53, HUDA Market, Sector 37, Faridabad",Sector 37,"Sector 37, Faridabad",77.3113363,28.4806939,"Chinese, Fast Food"
18367078,1,Faridabad,"Magical Momos,Huda Market, Sector 37, Faridabad",Sector 37,"Sector 37, Faridabad",77.3104099,28.4806379,Chinese
18469976,1,Faridabad,"Sam's Bake Shop,Shop 121, HUDA Market, Sector 37, Faridabad",Sector 37,"Sector 37, Faridabad",77.3103201,28.4808985,"Bakery, Fast Food"
18381643,1,Faridabad,"Shri Bikaner Misthan Bhandar,Sher Shah Suri Road Rajaram Market, Sector 37, Faridabad",Sector 37,"Sector 37, Faridabad",77.3092797,28.4773757,"Mithai, Street Food"
18471327,1,Faridabad,"Tasty Dhaba Family Restaurant,12/4, Sarai Khawaja, Banarasi Market, Near Toll Gate, Main Mathura Road, Sector 37, Faridabad",Sector 37,"Sector 37, Faridabad",77.3060567,28.474531,"North Indian, Mughlai"
18469936,1,Faridabad,"U & I,Shop 15, Main Road, Sector 37, Faridabad",Sector 37,"Sector 37, Faridabad",77.3056065,28.4807304,"North Indian, Chinese"
18433895,1,Faridabad,"Cravings,Shop 6, SCO C-3166, Lower Ground Floor, Pujara Complex, Green Fields Colony, Sector 41, Faridabad",Sector 41,"Sector 41, Faridabad",77.28759091,28.46626355,"North Indian, Mughlai, Chinese"
313089,1,Faridabad,"Evergreen Tandoori Night,C-3548, Basement, Greenfield, Sector 41, Faridabad",Sector 41,"Sector 41, Faridabad",77.28919957,28.46191014,North Indian
18349251,1,Faridabad,"Prelibato,3176, C Block Market, Green Field Colony, Sector 41, Faridabad",Sector 41,"Sector 41, Faridabad",0,0,"Italian, North Indian"
18344478,1,Faridabad,"Aravali Owls,B-263, Green Field Colony, Sector 42, Faridabad",Sector 42,"Sector 42, Faridabad",0,0,"North Indian, Chinese"
18089775,1,Faridabad,"Chicken Inn Family Meat Shop,B-204, Green Field Colony, Sector 42, Faridabad",Sector 42,"Sector 42, Faridabad",77.30027778,28.46118611,"Raw Meats, Fast Food"
18424179,1,Faridabad,"Mother's Kitchen,B-1212, Ground Floor, Front Side, Green Fields Colony, Main Road, Sector 42, Faridabad",Sector 42,"Sector 42, Faridabad",0,0,"North Indian, Chinese"
309632,1,Faridabad,"Domino's Pizza,Ground Floor, Plot 201, Block B, Greenfield Colony, Sector 43, Faridabad",Sector 43,"Sector 43, Faridabad",77.3001795,28.4609554,"Pizza, Fast Food"
312874,1,Faridabad,"Green Chick Chop,Shop 15, Omaxe Hills And Forest Spa, Surajkund Road, Sector 43, Faridabad",Sector 43,"Sector 43, Faridabad",77.2886873,28.460556,"Raw Meats, North Indian, Fast Food"
18107870,1,Faridabad,"Punjabi Culture,B-474, Greenfield Plaza, Sector 43, Faridabad",Sector 43,"Sector 43, Faridabad",77.2978395,28.4622059,"North Indian, Mughlai"
18237362,1,Faridabad,"Three Olives,B-102, Green Field Colony, Sector 43, Faridabad",Sector 43,"Sector 43, Faridabad",77.30083365,28.46227858,"Italian, Fast Food"
18277177,1,Faridabad,"Aggarwal's Bikaner Mishthan Bhandar,Anangpur Chowk, Opposite Omaxe Tower, Sector 43, Faridabad",Sector 43,"Sector 43, Faridabad",77.2847783,28.46117,"Mithai, South Indian, Chinese, Street Food"
